Fuel Type Code,Station Name,Street Address,Intersection Directions,City,State,ZIP,Plus4,Station Phone,Status Code,Expected Date,Groups With Access Code,Access Days Time,Cards Accepted,BD Blends,NG Fill Type Code,NG PSI,EV Level1 EVSE Num,EV Level2 EVSE Num,EV DC Fast Count,EV Other Info,EV Network,EV Network Web,Geocode Status,Latitude,Longitude,Date Last Confirmed,ID,Updated At,Owner Type Code,Federal Agency ID,Federal Agency Name,Open Date,Hydrogen Status Link,NG Vehicle Class,LPG Primary,E85 Blender Pump,EV Connector Types,Country,Intersection Directions (French),Access Days Time (French),BD Blends (French),Groups With Access Code (French),Hydrogen Is Retail,Access Code,Access Detail Code,Federal Agency Code,Facility Type,CNG Dispenser Num,CNG On-Site Renewable Source,CNG Total Compression Capacity,CNG Storage Capacity,LNG On-Site Renewable Source,E85 Other Ethanol Blends,EV Pricing,EV Pricing (French),LPG Nozzle Types,Hydrogen Pressures,Hydrogen Standards,CNG Fill Type Code,CNG PSI,CNG Vehicle Class,LNG Vehicle Class,EV On-Site Renewable Source,Restricted Access,RD Blends,RD Blends (French),RD Blended with Biodiesel,RD Maximum Biodiesel Level,NPS Unit Name,CNG Station Sells Renewable Natural Gas,LNG Station Sells Renewable Natural Gas,Maximum Vehicle Class,EV Workplace Charging,Funding Sources
ELEC,Sacramento County Public Garage,725 7th St,7th St & G St,Sacramento,CA,95814,,888-758-4389,E,,Public,24 hours daily; pay lot,,,,,,,,1 SP Inductive,,,GPS,38.58431244,-121.4956055,2012-12-31,1495,2014-01-20 18:29:34 UTC,P,,,,,,,,,US,,,,Public,,public,,,PRKGRG,,,,,,,,,,,,,,,,,,,,,,,,,,,
ELEC,Park Tower,1010 8th St,,Sacramento,CA,95814,,916-442-2217,E,,Public,Garage business hours; pay lot; 4 hour parking limit,,,,,,4,,,,,GPS,38.58085,-121.4953,2014-12-30,1515,2014-12-30 22:16:10 UTC,P,,,,,,,,J1772,US,,,,Public,,public,,,PPRKGRG,,,,,,,,,,,,,,,,,,,,,,,,,,,
ELEC,LADWP - Truesdale Center,11791 Truesdale St,,Sun Valley,CA,91352,,,E,,Private - Government only,,,,,,,,,2 Conductive 240V,,,200-8,34.2491037,-118.3875613,2012-12-31,1517,2014-09-02 22:10:25 UTC,LG,,,,,,,,,US,,,,Privé - Réservé au gouvernement,,private,GOVERNMENT,,UTL,,,,,,,,,,,,,,,,,,,,,,,,,,,
ELEC,LADWP - West LA District Office,1394 S Sepulveda Blvd,,Los Angeles,CA,90024,,,E,,Private - Government only,,,,,,,,,6 Conductive 240V,,,200-8,34.0504479,-118.4466778,2012-12-31,1519,2014-09-02 22:10:44 UTC,LG,,,,,,,,,US,,,,Privé - Réservé au gouvernement,,private,GOVERNMENT,,UTL,,,,,,,,,,,,,,,,,,,,,,,,,,,
ELEC,Southern California Edison - Rosemead Office Building 1 ,2244 Walnut Grove Ave,Station is located in lot off of Rush Street,Rosemead,CA,91770,,888-758-4389,E,,Private,,,,,,,4,,2 SP Inductive,,,200-8,34.0532105,-118.0817627,2012-07-31,1520,2014-09-30 14:42:42 UTC,T,,,,,,,,J1772,US,,,,Privé,,private,,,UTL,,,,,,,,,,,,,,,,,,,,,,,,,,,
ELEC,Los Angeles Convention Center,1201 S Figueroa St,West hall,Los Angeles,CA,90015,,213-741-1151,E,,Public,24 hours daily; pay lot,,,,,1,2,,,,,200-8,34.0401988,-118.2695539,2014-09-05,1523,2014-09-05 20:30:37 UTC,P,,,,,,,,J1772 NEMA515,US,,,,Public,,public,,,,,,,,,,,,,,,,,,,,,,,,,,,,,,
ELEC,South Coast Air Quality Management District,21865 E Copley Dr,,Diamond Bar,CA,91765,,909-396-2000,E,,Public,24 hours daily,,,,,14,,,2 SP Inductive,,,200-8,34.002107,-117.8290451,2014-12-30,1524,2014-12-30 22:09:14 UTC,P,,,,,,,,NEMA520,US,,,,Public,,public,,,MUNGOV,,,,,,,,,,,,,,,,,,,,,,,,,,,
ELEC,LADWP - Parking,111 N Hope St,Across Hope,Los Angeles,CA,90012,,800-473-3652,E,,Public,24 hours daily,,,,,,51,,,,,200-8,34.057593,-118.248854,2013-12-31,1525,2014-09-02 22:08:57 UTC,LG,,,,,,,,J1772,US,,,,Public,,public,,,UTL,,,,,,,,,,,,,,,,,,,,,,,,,,,
ELEC,Cherokee-Whitley Garage,1718 N Cherokee Ave,,Los Angeles,CA,90028,,323-957-9211,E,,Public,24 hours daily; pay lot,,,,,,4,,,,,200-8,34.1022448,-118.3347468,2012-12-31,1526,2014-09-03 16:28:18 UTC,P,,,,,,,,J1772,US,,,,Public,,public,,,PRKGRG,,,,,,,,,,,,,,,,,,,,,,,,,,,
ELEC,Figueroa Tower Parking Garage,801 S Figueroa St,,Los Angeles,CA,90017,,310-777-5000,E,,Public,Garage business hours; pay lot,,,,,,4,,,,,200-8,34.047834,-118.261897,2013-12-31,1527,2014-12-17 21:56:04 UTC,P,,,,,,,,J1772,US,,,,Public,,public,,,PRKGRG,,,,,,,,,,,,,,,,,,,,,,,,,,,
ELEC,Southern California Edison - Covina Service Center,800 W Cienega Ave,,San Dimas,CA,91773,,,E,,Private,,,,,,,2,,13 SP Inductive,,,200-8,34.102163,-117.822149,2012-07-31,1529,2014-09-30 14:39:57 UTC,T,,,,,,,,J1772,US,,,,Privé,,private,,,UTL,,,,,,,,,,,,,,,,,,,,,,,,,,,
ELEC,LADWP - Haynes Power Plant,6801 Westminster Ave,,Long Beach,CA,90803,,,E,,Private - Government only,,,,,,,,,1 SP Inductive,,,200-8,33.7591913,-118.0085681,2014-12-30,1531,2014-12-30 22:17:13 UTC,LG,,,,,,,,,US,,,,Privé - Réservé au gouvernement,,private,GOVERNMENT,,UTL,,,,,,,,,,,,,,,,,,,,,,,,,,,
ELEC,State Capitol Parking Garage,1303 10th St,At 12th and N St,Sacramento,CA,95814,,,E,,Private - Government only,Permitted state employees only,,,,,,4,,1 LP Inductive  1 SP Inductive  1 Avcon Conductive  1 Other Conductive,,,200-8,38.57596,-121.495,2014-09-05,1533,2014-09-05 20:32:25 UTC,SG,,,,,,,,J1772,US,,,,Privé - Réservé au gouvernement,,private,GOVERNMENT,,,,,,,,,,,,,,,,,,,,,,,,,,,,,
ELEC,CITYOFSANTAROSA,100 Santa Rosa Ave,,Santa Rosa,CA,95404,,888-758-4389,E,,Public,24 hours daily,,,,,2,2,,,ChargePoint Network,https://www.chargepoint.com,200-8,38.4378005,-122.711834,2014-12-30,1546,2014-12-30 08:49:34 UTC,,,,,,,,,J1772 NEMA520,US,,,,Public,,public,,,,,,,,,,,,,,,,,,,,,,,,,,,,,,
ELEC,LADWP - Wilmington,161 N Island Ave,At B St,Wilmington,CA,90744,,,E,,Private - Government only,,,,,,,,,4 Conductive 240V,,,200-8,33.7705833,-118.2656449,2012-12-31,1552,2014-09-02 22:10:54 UTC,LG,,,,,,,,,US,,,,Privé - Réservé au gouvernement,,private,GOVERNMENT,,UTL,,,,,,,,,,,,,,,,,,,,,,,,,,,
ELEC,LADWP - Sylmar Center,13101 Sepulveda Blvd,,Sylmar,CA,91344,,,E,,Private - Government only,,,,,,,,,2 Conductive 240V,,,200-8,34.3108852,-118.4874,2012-12-31,1556,2014-09-02 22:10:19 UTC,LG,,,,,,,,,US,,,,Privé - Réservé au gouvernement,,private,GOVERNMENT,,UTL,,,,,,,,,,,,,,,,,,,,,,,,,,,
ELEC,Southern California Edison - Whittier Service Center,9901 Geary Ave,,Santa Fe Springs,CA,90670,,,E,,Private,,,,,,,,,1 LP Inductive  1 SP Inductive,,,200-8,33.947829,-118.0749531,2012-07-31,1558,2014-09-30 14:45:26 UTC,T,,,,,,,,,US,,,,Privé,,private,,,UTL,,,,,,,,,,,,,,,,,,,,,,,,,,,
ELEC,DGS MAIN,1500 10th St,,Sacramento,CA,95814,,888-758-4389,E,,Public,24 hours daily,,,,,,8,,,ChargePoint Network,https://www.chargepoint.com,200-8,38.57481,-121.4958746,2014-12-30,1567,2014-12-30 09:17:13 UTC,,,,,,,,,J1772,US,,,,Public,,public,,,,,,,,,,,,,,,,,,,,,,,,,,,,,,
ELEC,LADWP - EV Service Center,1630 N Main St,,Los Angeles,CA,90012,,,E,,Private - Government only,,,,,,,,,7 SP Inductive  4 Avcon Conductive,,,200-8,34.066854,-118.2274711,2012-12-31,1572,2014-09-02 22:08:23 UTC,LG,,,,,,,,,US,,,,Privé - Réservé au gouvernement,,private,GOVERNMENT,,UTL,,,,,,,,,,,,,,,,,,,,,,,,,,,
ELEC,LADWP - Fairfax Center,2311 S Fairfax Ave,,Los Angeles,CA,90016,,,E,,Private - Government only,,,,,,,,,2 Conductive 240V,,,200-8,34.036482,-118.3694,2012-12-31,1573,2014-09-02 22:08:29 UTC,LG,,,,,,,,,US,,,,Privé - Réservé au gouvernement,,private,GOVERNMENT,,UTL,,,,,,,,,,,,,,,,,,,,,,,,,,,
ELEC,LADWP - Ducommun Center,433 E Temple St,,Los Angeles,CA,90012,,,E,,Private - Government only,,,,,,,2,,2 Conductive 240V,,,200-8,34.0506814,-118.236336,2012-12-31,1575,2014-09-02 22:08:16 UTC,LG,,,,,,,,J1772,US,,,,Privé - Réservé au gouvernement,,private,GOVERNMENT,,UTL,,,,,,,,,,,,,,,,,,,,,,,,,,,
ELEC,California Air Resources Board,9530 Telstar Ave,,El Monte,CA,91731,,626-575-6800,E,,Public,24 hours daily,,,,,,4,,,,,GPS,34.06872,-118.064,2014-09-05,1583,2014-09-05 19:38:57 UTC,P,,,,,,,,J1772,US,,,,Public,,public,,,,,,,,,,,,,,,,,,,,,,,,,,,,,,
ELEC,LADWP - Palmetto Center,1212 Palmetto St,,Los Angeles,CA,90013,,,E,,Private - Government only,,,,,,,,,2 Conductive 240V,,,200-8,34.0400573,-118.2356845,2012-12-31,1589,2014-09-02 22:08:50 UTC,LG,,,,,,,,,US,,,,Privé - Réservé au gouvernement,,private,GOVERNMENT,,UTL,,,,,,,,,,,,,,,,,,,,,,,,,,,
ELEC,Southern California Edison - Pomona Service Center,265 SE End Ave,,Pomona,CA,91767,,800-438-4636,E,,Private,,,,,,,1,,2 SP Inductive,,,200-8,34.0630077,-117.7239787,2014-10-06,1592,2014-10-06 15:15:23 UTC,T,,,,,,,,J1772,US,,,,Privé,,private,,,UTL,,,,,,,,,,,,,,,,,,,,,,,,,,,
ELEC,HP PALO ALTO,3000 Hanover St,,Palo Alto,CA,94304,,888-758-4389,E,,Public,24 hours daily,,,,,,8,,,ChargePoint Network,https://www.chargepoint.com,200-8,37.4147446,-122.1463464,2014-12-30,1593,2014-12-30 08:44:21 UTC,,,,,,,,,J1772,US,,,,Public,,public,,,,,,,,,,,,,,,,,,,,,,,,,,,,,,
ELEC,State Capitol Parking Garage,1303 10th St,At 12th and N St,Sacramento,CA,95814,,,E,,Private - Government only,Permitted state employees only,,,,,,,,1 SP Inductive  4 Avcon Conductive,,,200-8,38.57596,-121.495,2014-09-05,1594,2014-09-05 20:32:25 UTC,SG,,,,,,,,,US,,,,Privé - Réservé au gouvernement,,private,GOVERNMENT,,,,,,,,,,,,,,,,,,,,,,,,,,,,,
ELEC,Scripps Green Hospital,10666 N Torrey Pines Rd,"Patient Parking Structure, level G",La Jolla,CA,92037,,858-554-9100,E,,Public,24 hours daily,,,,,,2,,,,,GPS,32.89947,-117.243,2014-12-30,6355,2014-12-30 22:16:14 UTC,P,,,,,,,,J1772,US,,,,Public,,public,,,HSPTL,,,,,,,,,,,,,,,,,,,,,,,,,,,
ELEC,Macy's #71-553 - Mission Valley - San Diego CA,1702 Camino Del Rio North,,San Diego,CA,92108,,888-998-2546,E,,Public,MON: 10:00am-9:00pm | TUE: 10:00am-9:00pm | WED: 10:00am-9:00pm | THU: 10:00am-9:00pm | FRI: 10:00am-9:00pm | SAT: 10:00am-9:00pm | SUN: 11:00am-7:00pm,,,,,,4,,,Blink Network,https://blinkcharging.com,GPS,32.770182,-117.148134,2014-12-30,6358,2014-12-29 08:11:46 UTC,,,,,,,,,J1772,US,,,,Public,,public,,,,,,,,,,,,,,,,,,,,,,,,,,,,,,
ELEC,Santa Monica Place Mall Garage #7 Civic Center ,395 Broadway,1st floor of parking garage,Santa Monica,CA,90401,,310-458-8516,E,,Public,24 hours daily; pay lot,,,,,,4,,1 SP Inductive,,,200-8,34.0150669,-118.4936476,2014-12-30,6377,2014-12-30 22:16:58 UTC,LG,,,,,,,,J1772,US,,,,Public,,public,,,MUNGOV,,,,,,,,,,,,,,,,,,,,,,,,,,,
ELEC,San Diego Wild Animal Park,15500 San Pasqual Valley Rd,,Escondido,CA,92027,,760-747-8702,E,,Public, 24 hours daily; pay lot,,,,,,1,,2 LP Inductive,,,200-8,33.0963683,-117.0021843,2014-09-05,6384,2014-09-05 20:33:26 UTC,P,,,,,,,,J1772,US,,,,Public,,public,,,,,,,,,,,,,,,,,,,,,,,,,,,,,,
ELEC,Galpin Motors,15421 Roscoe Blvd,,Sepulveda,CA,91343,,800-256-6219,E,,Public,Dealership business hours,,,,,,2,,,,,200-8,34.221913,-118.468523,2014-12-04,6405,2014-12-04 15:17:00 UTC,P,,,,,,,,J1772,US,,,,Public,,public,,,CRDLR,,,,,,,,,,,,,,,,,,,,,,,,,,,
ELEC,Walmart #1912,479 McKinley St,,Corona,CA,92879,,888-998-2546,E,,Public,MON: 24 hours | TUE: 24 hours | WED: 24 hours | THU: 24 hours | FRI: 24 hours | SAT: 24 hours | SUN: 24 hours,,,,,,1,,,Blink Network,https://blinkcharging.com,GPS,33.889948,-117.517297,2014-12-30,6419,2014-12-29 08:13:52 UTC,,,,,,,,,J1772,US,,,,Public,,public,,,,,,,,,,,,,,,,,,,,,,,,,,,,,,
ELEC,Galleria at Tyler,1299 Galleria at Tyler,,Riverside,CA,92503,,951-351-3110,E,,Public,Mall business hours,,,,,,6,,,,,GPS,33.91115,-117.4591,2014-12-04,6425,2014-12-04 15:16:21 UTC,P,,,,,,,,J1772,US,,,,Public,,public,,,SHPGML,,,,,,,,,,,,,,,,,,,,,,,,,,,
ELEC,Kaiser Permanente - Fontana,9961 Sierra Ave.,,Fontana,CA,92335,,888-998-2546,E,,Public,MON: 24 hours | TUE: 24 hours | WED: 24 hours | THU: 24 hours | FRI: 24 hours | SAT: 24 hours | SUN: 24 hours,,,,,,4,,,Blink Network,https://blinkcharging.com,GPS,34.073878,-117.43098,2014-12-30,6429,2014-12-29 08:09:14 UTC,,,,,,,,,J1772,US,,,,Public,,public,,,,,,,,,,,,,,,,,,,,,,,,,,,,,,
ELEC,Walmart #1693,2050 W Redlands Blvd,,Redlands,CA,92373,,888-998-2546,E,,Public,MON: 24 hours | TUE: 24 hours | WED: 24 hours | THU: 24 hours | FRI: 24 hours | SAT: 24 hours | SUN: 24 hours,,,,,,2,,,Blink Network,https://blinkcharging.com,GPS,34.064535,-117.223142,2014-12-30,6433,2014-12-29 08:13:52 UTC,,,,,,,,,J1772,US,,,,Public,,public,,,,,,,,,,,,,,,,,,,,,,,,,,,,,,
ELEC,City of Pasadena - Holly Street Garage,150 E Holly St,,Pasadena,CA,91103,,626-744-7665,E,,Public,Garage business hours; pay lot,,,,,,8,,3 SP Inductive,,,200-8,34.147196,-118.147294,2014-09-05,6505,2014-09-05 19:52:53 UTC,LG,,,,,,,,J1772,US,,,,Public,,public,,,,,,,,,,,,,,,,,,,,,,,,,,,,,,
ELEC,City of Pasadena - De Lacey Garage,45 De Lacey Ave,,Pasadena,CA,91105,,626-744-7665,E,,Public,24 hours daily; pay lot,,,,,,3,,,,,200-8,34.1449545,-118.1522347,2014-09-05,6506,2014-09-05 20:23:31 UTC,LG,,,,,,,,J1772,US,,,,Public,,public,,,,,,,,,,,,,,,,,,,,,,,,,,,,,,
ELEC,City of Pasadena - Schoolhouse Garage,33 E Green St,,Pasadena,CA,91105,,626-744-7665,E,,Public,24 hours daily; pay lot,,,,,,3,,,,,200-8,34.1446949,-118.1499088,2014-09-05,6507,2014-09-05 19:52:59 UTC,LG,,,,,,,,J1772,US,,,,Public,,public,,,,,,,,,,,,,,,,,,,,,,,,,,,,,,
ELEC,Pasadena Hilton - Valet,150 S Los Robles,,Pasadena,CA,91101,,626-577-1000,E,,Public,24 hours daily; pay lot,,,,,,2,,,,,200-8,34.143124,-118.140308,2014-09-05,6508,2014-09-05 19:22:18 UTC,P,,,,,,,,J1772,US,,,,Public,,public,,,,,,,,,,,,,,,,,,,,,,,,,,,,,,
ELEC,Bristol Farms,606 Fair Oaks Ave,,South Pasadena,CA,91030,,626-441-5450,E,,Public,24 hours daily,,,,,,,,1 LP Inductive,,,200-8,34.1183488,-118.1500456,2012-12-31,6509,2014-01-20 19:14:53 UTC,P,,,,,,,,,US,,,,Public,,public,,,GRCRSTR,,,,,,,,,,,,,,,,,,,,,,,,,,,
ELEC,Anaheim Hilton and Towers - Valet,777 W Convention Way,,Anaheim,CA,92802,,714-750-4321,E,,Public,24 hours daily; pay lot; own charging cable required,,,,,,,,1 LP Inductive,,,200-8,33.8001717,-117.918316,2013-12-31,7133,2014-04-21 18:22:50 UTC,P,,,,,,,,,US,,,,Public,,public,,,HTL,,,,,,,,,,,,,,,,,,,,,,,,,,,
ELEC,UTA Plaza,9336 Civic Center Dr,,Beverly Hills,CA,90210,,,E,,Private,,,,,,,4,,,,,GPS,34.0742,-118.3985,2014-12-30,7137,2014-12-30 22:13:48 UTC,P,,,,,,,,J1772,US,,,,Privé,,private,,,OFCBLD,,,,,,,,,,,,,,,,,,,,,,,,,,,
ELEC,Costco,951 Palomar Airport Rd,,Carlsbad,CA,92011,,760-929-0963,E,,Public,24 hours daily,,,,,,,,1 SP Inductive,,,200-8,33.1201381,-117.3165503,2012-10-31,7142,2014-01-20 19:28:21 UTC,P,,,,,,,,,US,,,,Public,,public,,,GRCRSTR,,,,,,,,,,,,,,,,,,,,,,,,,,,
ELEC,Fry's Electronics,1800 Kalama River Ave,,Fountain Valley,CA,92708,,714-378-4400,E,,Public,24 hours daily,,,,,,,,2 LP Inductive,,,200-8,33.7002432,-117.9401496,2012-12-31,7156,2014-01-20 19:00:08 UTC,P,,,,,,,,,US,,,,Public,,public,,,OTH,,,,,,,,,,,,,,,,,,,,,,,,,,,
ELEC,Waterfront Hilton Resort - Valet,21100 Pacific Coast Hwy,,Huntington Beach,CA,92648,,714-845-8000,E,,Public,24 hours daily; pay lot,,,,,,1,,,,,GPS,33.65315,-117.9938,2014-09-05,7162,2014-09-05 20:35:49 UTC,P,,,,,,,,J1772,US,,,,Public,,public,,,,,,,,,,,,,,,,,,,,,,,,,,,,,,
ELEC,Southern California Edison - Gateway Business Center,6090 N Irwindale Ave,,Irwindale,CA,91702,,888-758-4389,E,,Public,24 hours daily,,,,,,,,4 SP Inductive,,,GPS,34.12443161,-117.9322433,2013-12-31,7168,2014-09-30 14:40:38 UTC,T,,,,,,,,,US,,,,Public,,public,,,UTL,,,,,,,,,,,,,,,,,,,,,,,,,,,
ELEC,Ace Parking - Aventine,3777 La Jolla Village Dr,,San Diego,CA,92122,,888-998-2546,E,,Public,MON: 24 hours | TUE: 24 hours | WED: 24 hours | THU: 24 hours | FRI: 24 hours | SAT: 24 hours | SUN: 24 hours,,,,,,3,,,Blink Network,https://blinkcharging.com,GPS,32.870925,-117.225644,2014-12-30,7169,2014-12-29 08:12:53 UTC,,,,,,,,,J1772,US,,,,Public,,public,,,,,,,,,,,,,,,,,,,,,,,,,,,,,,
ELEC,Hyatt Regency Long Beach - Valet,200 S Pine Ave,,Long Beach,CA,90802,,562-491-1234,E,,Public,24 hours daily; pay lot,,,,,,1,,,,,GPS,33.7637,-118.192,2014-12-30,7172,2014-12-30 22:15:24 UTC,P,,,,,,,,J1772,US,,,,Public,,public,,,HTL,,,,,,,,,,,,,,,,,,,,,,,,,,,
ELEC,Long Beach Hilton - Valet,2 World Trade Center,,Long Beach,CA,90834,,562-983-3400,E,,Public,24 hours daily; pay lot,,,,,,,,1 LP Inductive  1 Avcon Conductive,,,200-8,33.7674107,-118.1993371,2014-12-30,7174,2014-12-30 22:09:32 UTC,P,,,,,,,,,US,,,,Public,,public,,,HTL,,,,,,,,,,,,,,,,,,,,,,,,,,,
ELEC,Century City Shopping Center,10250 Santa Monica Blvd,Located next to the orange elevators,Los Angeles,CA,90067,,310-277-3898,E,,Public,Garage business hours; own charging cable required,,,,,4,,,,,,200-8,34.0604643,-118.4186743,2014-09-05,7177,2014-09-05 19:46:53 UTC,P,,,,,,,,NEMA520,US,,,,Public,,public,,,,,,,,,,,,,,,,,,,,,,,,,,,,,,
ELEC,Hilton - Los Angeles International Airport,5711 W Century Blvd,P5,Los Angeles,CA,90045,,310-410-6036,E,,Public,24 hours daily; pay lot,,,,,,,,1 LP Inductive,,,200-8,33.946207,-118.3816,2012-12-31,7180,2014-01-20 18:13:42 UTC,P,,,,,,,,,US,,,,Public,,public,,,HTL,,,,,,,,,,,,,,,,,,,,,,,,,,,
ELEC,Los Angeles International Airport (LAX) - Lot 6,1 World Way,Central Terminal Area (CTA) - P6,Los Angeles,CA,90045,,310-646-2911,E,,Public,24 hours daily; pay lot,,,,,,15,,5 SP Inductive,,,200-8,33.9446599,-118.3982273,2014-12-30,7184,2014-12-30 22:17:04 UTC,LG,,,,,,,,J1772,US,,,,Public,,public,,,ARPRT,,,,,,,,,,,,,,,,,,,,,,,,,,,
ELEC,Newport Fashion Island,550 Newport Center Dr,,Newport Beach,CA,92660,,949-640-2916,E,,Public,24 hours daily,,,,,,,,2 SP Inductive  1 Avcon Conductive,,,200-8,33.6158612,-117.8711879,2012-12-31,7190,2014-01-20 18:45:47 UTC,P,,,,,,,,,US,,,,Public,,public,,,SHPCNTR,,,,,,,,,,,,,,,,,,,,,,,,,,,
ELEC,Northridge Fashion Center,9301 Tampa Ave,,Northridge,CA,91324,,818-885-9700,E,,Public,24 hours daily,,,,,,1,,,,,200-8,34.2391367,-118.5536313,2014-12-30,7192,2014-12-30 22:16:09 UTC,P,,,,,,,,J1772,US,,,,Public,,public,,,SHPGML,,,,,,,,,,,,,,,,,,,,,,,,,,,
ELEC,Ontario Airport Hilton,700 N Haven Ave,,Ontario,CA,91764,,909-980-0400,E,,Public,24 hours daily,,,,,,1,,,,,GPS,34.07122,-117.575,2014-12-30,7194,2014-12-30 22:02:01 UTC,P,,,,,,,,J1772,US,,,,Public,,public,,,HTL,,,,,,,,,,,,,,,,,,,,,,,,,,,
ELEC,Courtyard Marriott - Oxnard Ventura,600 E Esplanade Dr,,Oxnard,CA,93030,,805-988-3600,E,,Public,24 hours daily; guest use only,,,,,,2,,1 SP Inductive,,,GPS,34.22935,-119.173,2014-12-04,7195,2014-12-04 15:16:51 UTC,P,,,,,,,,J1772,US,,,,Public,,public,,,HTL,,,,,,,,,,,,,,,,,,,,,,,,,,,
ELEC,Hilton Palm Springs,400 E Tahquitz Canyon Way,,Palm Springs,CA,92262,,760-320-6868,E,,Public,24 hours daily; pay lot; priority given to registered guests,,,,,1,1,,,,,GPS,33.823353,-116.5436,2014-09-05,7196,2014-09-05 19:20:21 UTC,P,,,,,,,,J1772 NEMA520,US,,,,Public,,public,,,,,,,,,,,,,,,,,,,,,,,,,,,,,,
ELEC,East Bay Mini,4340 Rosewood Dr,,Pleasanton,CA,94588,,925-251-7070,E,,Public,Dealership business hours,,,,,,2,,,,,200-8,37.7000263,-121.8760726,2014-12-04,7197,2014-12-04 15:16:57 UTC,P,,,,,,,,J1772,US,,,,Public,,public,,,CRDLR,,,,,,,,,,,,,,,,,,,,,,,,,,,
ELEC,City of Rialto - City Hall,150 S Palm Ave,,Rialto,CA,92376,,909-820-2684,E,,Public,24 hours daily,,,,,,1,,,,,GPS,34.09961,-117.372,2014-12-30,7198,2014-12-30 22:16:35 UTC,LG,,,,,,,,J1772,US,,,,Public,,public,,,MUNGOV,,,,,,,,,,,,,,,,,,,,,,,,,,,
ELEC,CNTYOFRIVERSIDE,3535 12th St,,Riverside,CA,92501,,888-758-4389,E,,Public,24 hours daily,,,,,,2,,,ChargePoint Network,https://www.chargepoint.com,200-8,33.9775658,-117.375154,2014-12-30,7205,2014-12-30 09:06:10 UTC,,,,,,,,,J1772,US,,,,Public,,public,,,,,,,,,,,,,,,,,,,,,,,,,,,,,,
ELEC,Inland Empire Foods,5425 Wilson St,,Riverside,CA,92509,,951-682-8222,E,,Public,"24 hours M-Th, 12am-4:30pm F",,,,,,2,,,,,GPS,34.0189,-117.38,2014-12-30,7206,2014-12-30 22:12:26 UTC,P,,,,,,,,J1772,US,,,,Public,,public,,,GRCRSTR,,,,,,,,,,,,,,,,,,,,,,,,,,,
ELEC,Sacramento International Airport - Daily A Lot,Lindbergh Dr,,Sacramento,CA,95837,,916-874-0670,E,,Public,24 hours daily; pay lot,,,,,,4,,1 SP Inductive,,,GPS,38.69005,-121.58889,2014-12-30,7212,2014-12-30 22:09:12 UTC,P,,,,,,,,J1772,US,,,,Public,,public,,,ARPRT,,,,,,,,,,,,,,,,,,,,,,,,,,,
ELEC,City of Santa Monica - Airport,3223 Donald Douglas Loop,,Santa Monica,CA,90405,,310-458-8516,E,,Public,24 hours daily,,,,,,2,,,,,200-8,34.020478,-118.4487573,2014-12-30,7229,2014-12-30 22:14:03 UTC,LG,,,,,,,,J1772,US,,,,Public,,public,,,ARPRT,,,,,,,,,,,,,,,,,,,,,,,,,,,
ELEC,City of Santa Monica Pier,200 Santa Monica Pier,,Santa Monica,CA,90405,,310-458-8516,E,,Public,24 hours daily; pay lot,,,,,1,3,,1 SP Inductive,,,200-8,33.9986803,-118.4797343,2014-12-30,7230,2014-12-30 22:14:00 UTC,LG,,,,,,,,J1772 NEMA520,US,,,,Public,,public,,,MUNGOV,,,,,,,,,,,,,,,,,,,,,,,,,,,
ELEC,Sherman Oaks Fashion Square,14006 Riverside Dr,,Sherman Oaks,CA,91423,,818-783-0550,E,,Public,24 hours daily,,,,,,,,1 SP Inductive,,,200-8,34.156143,-118.432204,2012-12-31,7233,2014-09-02 21:01:09 UTC,P,,,,,,,,,US,,,,Public,,public,,,SHPCNTR,,,,,,,,,,,,,,,,,,,,,,,,,,,
ELEC,City of Temecula - 6th Street Lot,28462 Front St,,Temecula,CA,92590,,951-694-6411,E,,Public,24 hours daily,,,,,,2,,,,,GPS,33.49605,-117.152,2014-12-30,7236,2014-12-30 22:09:16 UTC,LG,,,,,,,,J1772,US,,,,Public,,public,,,PRKLT,,,,,,,,,,,,,,,,,,,,,,,,,,,
ELEC,Universal City Hilton,333 Universal Terrace Pkwy,,Universal City,CA,91608,,818-506-2500,E,,Public,24 hours daily; pay lot,,,,,,1,,1 LP Inductive  1 Avcon Conductive,,,200-8,34.1406014,-118.3518,2014-09-05,7242,2014-09-05 20:36:38 UTC,P,,,,,,,,J1772,US,,,,Public,,public,,,,,,,,,,,,,,,,,,,,,,,,,,,,,,
ELEC,Van Nuys Amtrak/Metrolink Station,7724 Van Nuys Blvd,,Van Nuys,CA,91405,,800-371-5465,E,,Public,24 hours daily,,,,,,2,,,,,200-8,34.2097895,-118.4486101,2014-09-05,7245,2014-09-05 20:26:11 UTC,P,,,,,,,,J1772,US,,,,Public,,public,,,,,,,,,,,,,,,,,,,,,,,,,,,,,,
ELEC,Ralph's,5601 Wilshire Blvd,,Los Angeles,CA,90036,,323-936-4954,E,,Public,24 hours daily,,,,,,,,2 LP Inductive,,,200-8,34.062928,-118.350951,2014-12-30,7249,2014-12-30 22:00:20 UTC,T,,,,,,,,,US,,,,Public,,public,,,PRKLT,,,,,,,,,,,,,,,,,,,,,,,,,,,
ELEC,Office Max - Home Depot,7075 Firestone Blvd,,Downey,CA,90241,,562-806-6600,E,,Public,24 hours daily,,,,,,1,,,,,200-8,33.9484681,-118.1571511,2014-12-30,7250,2014-12-30 22:02:02 UTC,T,,,,,,,,J1772,US,,,,Public,,public,,,SHPCNTR,,,,,,,,,,,,,,,,,,,,,,,,,,,
ELEC,Scripps Memorial Hospital,354 Santa Fe Dr,,Encinitas,CA,92024,,760-633-6501,E,,Public,24 hours daily; pay lot,,,,,,1,,,,,GPS,33.03708,-117.284,2014-09-05,7262,2014-09-05 20:36:41 UTC,P,,,,,,,,J1772,US,,,,Public,,public,,,,,,,,,,,,,,,,,,,,,,,,,,,,,,
ELEC,San Diego Convention Center - Ace Parking,111 W Harbor Dr,,San Diego,CA,92101,,619-237-0399,E,,Public,24 hours daily,,,,,,3,,,,,GPS,32.70597,-117.162,2014-12-30,7264,2014-12-30 22:02:30 UTC,P,,,,,,,,J1772,US,,,,Public,,public,,,PRKGRG,,,,,,,,,,,,,,,,,,,,,,,,,,,
ELEC,City of Rialto - Metrolink,261 S Palm Ave,,Rialto,CA,92376,,909-820-2684,E,,Public,24 hours daily,,,,,,2,,,,,GPS,34.09774,-117.372,2014-12-30,7268,2014-12-30 22:16:36 UTC,LG,,,,,,,,J1772,US,,,,Public,,public,,,MUNGOV,,,,,,,,,,,,,,,,,,,,,,,,,,,
ELEC,City of Lancaster - City Hall,44933 Fern Ave,Located in the north side parking lot under the solar sun shade parking.,Lancaster,CA,93534,,661-723-6000,E,,Public,24 hours daily,,,,,,3,,,,,200-8,34.6985964,-118.1447125,2014-12-30,7275,2014-12-30 22:09:39 UTC,T,,,,,,,,J1772,US,,,,Public,,public,,,MUNGOV,,,,,,,,,,,,,,,,,,,,,,,,,,,
ELEC,Lancaster Metrolink Station,44812 N Sierra Hwy,,Lancaster,CA,93534,,661-723-6000  800-371-5465,E,,Public,Lot business hours; pay lot,,,,,1,4,,,,,200-8,34.6967918,-118.1366666,2014-12-30,7276,2014-12-30 22:15:08 UTC,LG,,,,,,,,J1772 NEMA520,US,,,,Public,,public,,,TRVCNTR,,,,,,,,,,,,,,,,,,,,,,,,,,,
ELEC,Hyatt at Fisherman's Wharf,555 N Point St,,San Francisco,CA,94133,,415-563-1234,E,,Public,24 hours daily; pay lot,,,,,,1,,,,,GPS,37.80619,-122.4152,2014-12-30,7280,2014-12-30 22:01:58 UTC,P,,,,,,,,J1772,US,,,,Public,,public,,,HTL,,,,,,,,,,,,,,,,,,,,,,,,,,,
ELEC,Arden Fair Mall,1689 Arden Way,,Sacramento,CA,95815,,916-920-1167,E,,Public,24 hours daily,,,,,,3,,,,,200-8,38.6014025,-121.4277649,2014-09-05,7286,2014-09-05 20:24:01 UTC,P,,,,,,,,J1772,US,,,,Public,,public,,,,,,,,,,,,,,,,,,,,,,,,,,,,,,
ELEC,SMUD Customer Service Center - Employee Parking Lot,6300 S St,,Sacramento,CA,95817,,,E,,Private,,,,,,,10,,1 SP Inductive,,,200-8,38.5517974,-121.4306558,2014-12-30,7289,2014-12-30 22:01:59 UTC,T,,,,,,,,J1772,US,,,,Privé,,private,,,PRKLT,,,,,,,,,,,,,,,,,,,,,,,,,,,
ELEC,Japan Center Garage,1610 Geary Blvd,Garage Level 1,San Francisco,CA,94115,,877-850-4562,E,,Public,24 hours daily; pay lot,,,,,,,,1 SP Inductive,,,GPS,37.784912,-122.430237,2014-12-30,21351,2014-12-30 22:01:57 UTC,LG,,,,,,,,,US,,,,Public,,public,,,PRKGRG,,,,,,,,,,,,,,,,,,,,,,,,,,,
ELEC,Moscone Center,255 3rd St,Public parking level 2,San Francisco,CA,94103,,415-777-2782,E,,Public,24 hours daily; pay lot,,,,,,2,,1 SP Inductive  1 Avcon Conductive,,,200-8,37.7843613,-122.3996365,2014-12-30,21353,2014-12-30 22:09:35 UTC,LG,,,,,,,,J1772,US,,,,Public,,public,,,PRKGRG,,,,,,,,,,,,,,,,,,,,,,,,,,,
ELEC,Saint Mary's Square Garage,433 Kearny St,"At Pine Street, Level 4",San Francisco,CA,94104,,415-956-8106,E,,Public,24 hours daily; pay lot,,,,,,,,1 SP Inductive,,,200-8,37.7920393,-122.4043372,2014-12-30,21354,2014-12-30 22:03:13 UTC,LG,,,,,,,,,US,,,,Public,,public,,,PRKGRG,,,,,,,,,,,,,,,,,,,,,,,,,,,
ELEC,Sutter Stockton Garage,444 Stockton St,At Sutter Street,San Francisco,CA,94108,,415-982-7275,E,,Public,Garage business hours; pay lot,,,,,,,,1 SP Inductive,,,GPS,37.78988,-122.407,2014-12-30,21355,2014-12-30 22:11:59 UTC,LG,,,,,,,,,US,,,,Public,,public,,,PRKGRG,,,,,,,,,,,,,,,,,,,,,,,,,,,
ELEC,San Francisco General Hospital Garage,2500 24th St,At Potrero Avenue,San Francisco,CA,94110,,415-206-8770,E,,Public,24 hours daily; pay lot,,,,,,3,,,,,200-8,37.753135,-122.404374,2014-12-30,21357,2014-12-30 22:09:34 UTC,LG,,,,,,,,J1772,US,,,,Public,,public,,,HSPTL,,,,,,,,,,,,,,,,,,,,,,,,,,,
ELEC,Palace Hotel,2 New Montgomery St,,San Francisco,CA,94105,,415-512-1111,E,,Public,24 hours daily,,,,,,1,,,,,GPS,37.78881,-122.401,2014-09-05,21358,2014-09-05 20:35:27 UTC,P,,,,,,,,J1772,US,,,,Public,,public,,,,,,,,,,,,,,,,,,,,,,,,,,,,,,
ELEC,Mark Hopkins InterContinental Hotel,99 California St,California at Mason,San Francisco,CA,94108,,415-392-3434,E,,Public,24 hours daily; pay lot; guest use only,,,,,,1,,,,,200-8,37.791405,-122.410248,2014-11-04,21360,2014-11-04 21:31:12 UTC,P,,,,,,,,J1772,US,,,,Public,,public,,,HTL,,,,,,,,,,,,,,,,,,,,,,,,,,,
ELEC,Kaiser Permanente - Woodland Hills,5601 De Soto Ave,,Woodland Hills,CA,91367,,818-719-2000,E,,Private,Employee use only,,,,,,,,1 SP Inductive  1 Avcon Conductive,,,200-8,34.170993,-118.589741,2014-12-30,21364,2014-12-30 21:59:31 UTC,P,,,,,,,,,US,,,,Privé,,private,,,HSPTL,,,,,,,,,,,,,,,,,,,,,,,,,,,
ELEC,Civic Center Garage,355 McAllister St,Chargers located on Level 1 and Level 2,San Francisco,CA,94102,,415-863-1537,E,,Public,24 hours daily; pay lot,,,,,,,,1 SP Inductive,,,GPS,37.780369,-122.417824,2014-12-30,21366,2014-12-30 22:09:38 UTC,LG,,,,,,,,,US,,,,Public,,public,,,PRKGRG,,,,,,,,,,,,,,,,,,,,,,,,,,,
ELEC,Ellis O'Farrell Garage,123 O'Farrell St,At Powell Street,San Francisco,CA,94102,,415-986-4800,E,,Public,24 hours daily; pay lot,,,,,,,,1 SP Inductive,,,200-8,37.7865487,-122.4071729,2014-12-30,21367,2014-12-30 22:00:08 UTC,LG,,,,,,,,,US,,,,Public,,public,,,PRKGRG,,,,,,,,,,,,,,,,,,,,,,,,,,,
ELEC,Hotel Sofitel,8555 Beverly Blvd,,Los Angeles,CA,90048,,310-278-5444,E,,Public,24 hours daily,,,,,,2,,,,,GPS,34.07631,-118.377,2014-12-30,21368,2014-12-30 22:05:09 UTC,P,,,,,,,,J1772,US,,,,Public,,public,,,HTL,,,,,,,,,,,,,,,,,,,,,,,,,,,
ELEC,SLS Hotel - Beverly Hills,465 S La Cienega Blvd,,Los Angeles,CA,90048,,310-247-0400,E,,Public,24 hours daily,,,,,,,,1 Avcon Conductive  1 ICS-200 Conductive,,,200-8,34.0700473,-118.3767587,2012-12-31,21369,2014-01-20 18:41:41 UTC,P,,,,,,,,,US,,,,Public,,public,,,HTL,,,,,,,,,,,,,,,,,,,,,,,,,,,
ELEC,Music Center Parking,135 N Grand Ave,"Located in IInternal Services Department  Lot 14, level 2",Los Angeles,CA,90012,,213-972-7211  323-881-3919 ,E,,Public,"Garage business hours; pay lot; keypad activated, instructions on EVSE",,,,,,3,,,,,200-8,34.0577972,-118.2477379,2014-09-05,21374,2014-09-05 19:43:27 UTC,P,,,,,,,,J1772,US,,,,Public,,public,,,,,,,,,,,,,,,,,,,,,,,,,,,,,,
ELEC,Encino Glen Golf Course,16821 Burbank Blvd,,Encino,CA,91436,,818-789-1926,E,,Public,24 hours daily,,,,,,2,,,,,200-8,34.174104,-118.498753,2014-09-05,21383,2014-09-05 20:34:58 UTC,P,,,,,,,,J1772,US,,,,Public,,public,,,,,,,,,,,,,,,,,,,,,,,,,,,,,,
ELEC,Tops Auto Park Garage,6464 Sunset Blvd,,Hollywood,CA,90028,,323-462-6727,E,,Public - Card key at all times,24 hours daily; network card required,,,,,,2,,,,,GPS,34.097928,-118.331,2014-12-30,21388,2014-12-30 22:08:50 UTC,P,,,,,,,,J1772,US,,,,Public - Carte-clé en tout temps,,public,KEY_ALWAYS,,PRKGRG,,,,,,,,,,,,,,,,,,,,,,,,,,,
ELEC,Kaiser Permanente - LA Med Ctr.,4867 Sunset Blvd,,Los Angeles,CA,90017,,888-998-2546,E,,Public,MON: 24 hours | TUE: 24 hours | WED: 24 hours | THU: 24 hours | FRI: 24 hours | SAT: 24 hours | SUN: 24 hours,,,,,,2,,,Blink Network,https://blinkcharging.com,GPS,34.098146,-118.295405,2014-12-30,21394,2014-12-29 08:09:36 UTC,,,,,,,,,J1772,US,,,,Public,,public,,,,,,,,,,,,,,,,,,,,,,,,,,,,,,
ELEC,Cal State Northridge - Lot G9 Structure,18111 Nordhoff St,Near Zelzah and Kenzie second level parking,Northridge,CA,91330,,818-677-1200,E,,Public,24 hours daily; parking permit required,,,,,,2,,,,,GPS,34.24876,-118.524,2014-04-21,21395,2014-04-21 18:22:52 UTC,P,,,,,,,,J1772,US,,,,Public,,public,,,,,,,,,,,,,,,,,,,,,,,,,,,,,,
ELEC,Cal State Northridge - Lot B4,18111 Nordhoff St,"Prairie Street, near Darby Avenue",Northridge,CA,91330,,818-677-1200,E,,Public,24 hours daily; parking permit required,,,,,,2,,,,,GPS,34.23933,-118.533,2014-04-21,21396,2014-04-21 18:22:52 UTC,P,,,,,,,,J1772,US,,,,Public,,public,,,,,,,,,,,,,,,,,,,,,,,,,,,,,,
ELEC,Cal State Northridge - Surface Lot B3,18111 Nordhoff St,"Off Etiwanda, South of Prairie",Northridge,CA,91330,,818-677-1200,E,,Public,24 hours daily; parking permit required,,,,,,2,,,,,GPS,34.24601,-118.524,2014-04-21,21397,2014-04-21 18:22:52 UTC,P,,,,,,,,J1772,US,,,,Public,,public,,,,,,,,,,,,,,,,,,,,,,,,,,,,,,
ELEC,Northridge Metrolink Station,8775 Wilbur Ave,,Northridge,CA,91324,,800-371-5465,E,,Public,24 hours daily,,,,,,2,,,,,200-8,34.2297918,-118.5448443,2014-09-05,21398,2014-09-05 20:26:08 UTC,P,,,,,,,,J1772,US,,,,Public,,public,,,,,,,,,,,,,,,,,,,,,,,,,,,,,,
ELEC,LA Harbor Department Headquarters,425 S Palos Verdes St,,San Pedro,CA,90731,,310-732-7678,E,,Public,8am-5pm daily,,,,,,4,,,,,200-8,33.7404816,-118.2816326,2014-12-30,21402,2014-12-30 22:15:59 UTC,P,,,,,,,,J1772,US,,,,Public,,public,,,PRKLT,,,,,,,,,,,,,,,,,,,,,,,,,,,
ELEC,Constituent Service Center,8475 S Vermont Ave,,Los Angeles,CA,90044,,213-485-7616,E,,Public,24 hours daily,,,,,,,,1 SP Inductive,,,200-8,33.9610886,-118.2917688,2014-09-05,21405,2014-09-05 19:27:09 UTC,P,,,,,,,,,US,,,,Public,,public,,,,,,,,,,,,,,,,,,,,,,,,,,,,,,
ELEC,University of Southern California - Lot 6,941 W 35th St,,Los Angeles,CA,90089,,213-740-2787,E,,Public,24 hours daily; pay lot,,,,,,2,,,,,200-8,34.0234615,-118.2878389,2013-12-31,21407,2014-04-21 18:22:53 UTC,P,,,,,,,,J1772,US,,,,Public,,public,,,CLGCMPS,,,,,,,,,,,,,,,,,,,,,,,,,,,
ELEC,Sylmar Metrolink Station,2100 Frank Modugno Dr,,San Fernando,CA,91342,,818-237-7641,E,,Public,24 hours daily,,,,,,2,,,,,200-8,34.2917388,-118.4482914,2014-09-05,21414,2014-09-05 20:26:10 UTC,P,,,,,,,,J1772,US,,,,Public,,public,,,,,,,,,,,,,,,,,,,,,,,,,,,,,,
ELEC,Getty Center,1200 Getty Center Dr,P2,Los Angeles,CA,90049,,310-440-7300,E,,Public, pay lot,,,,,2,,,1 SP Inductive  1 LP Inductive  1 Avcon Conductive,,,200-8,34.0783652,-118.4750027,2014-09-05,21419,2014-09-05 19:32:38 UTC,P,,,,,,,,NEMA520,US,,,,Public,,public,,,,,,,,,,,,,,,,,,,,,,,,,,,,,,
ELEC,Yosemite Field Station - El Portal Complex,5083 Foresta Rd,Highway 140 over the Foresta Bridge,El Portal,CA,95318,,209-379-1056,E,,Public - Call ahead,24 hours daily,,,,,,,,2 SP Inductive,,,200-8,37.6696692,-119.8144723,2012-12-31,21440,2014-01-20 18:13:43 UTC,SG,,,,,,,,,US,,,,Public - Appeler à l'avance,,public,CALL,,PRK,,,,,,,,,,,,,,,,,,,,,,,,,,,
ELEC,Los Angeles County Arboretum,301 N Baldwin Ave,Located in parking lot directly across from Harvard Dr,Arcadia,CA,91007,,323-881-3919,E,,Public, 24 hours daily,,,,,,3,,,,,200-8,34.1448511,-118.05079,2014-11-04,21450,2014-11-04 21:28:51 UTC,P,,,,,,,,J1772,US,,,,Public,,public,,,MUNGOV,,,,,,,,,,,,,,,,,,,,,,,,,,,
ELEC,California State - Dominguez Hills,1000 E Victoria St,Located at Physical Plant (Building #80) on south of building.,Carson,CA,90747,,310-243-3725  310-243-3696,E,,Public,24 hours daily; parking pass required - obtain at parking lot,,,,,,1,,,,,200-8,33.8672351,-118.2546498,2013-08-31,21457,2014-12-17 19:23:33 UTC,SG,,,,,,,,J1772,US,,,,Public,,public,,,CLGCMPS,,,,,,,,,,,,,,,,,,,,,,,,,,,
ELEC,California State - Dominguez Hills,1000 E Victoria St,Located at Physical Plant (Building #80) on south of building.,Carson,CA,90747,,310-243-3725  310-243-3696,E,,Public,24 hours daily; parking pass required - obtain at parking lot,,,,,,2,,,,,200-8,33.8672351,-118.2546498,2013-08-31,21459,2014-12-17 19:23:33 UTC,SG,,,,,,,,J1772,US,,,,Public,,public,,,CLGCMPS,,,,,,,,,,,,,,,,,,,,,,,,,,,
ELEC,Embassy Suites Hotel (LAX South),1440 Imperial Ave,,El Segundo,CA,90245,,888-998-2546,E,,Public,MON: 24 hours | TUE: 24 hours | WED: 24 hours | THU: 24 hours | FRI: 24 hours | SAT: 24 hours | SUN: 24 hours,,,,,,3,,,Blink Network,https://blinkcharging.com,GPS,33.930574,-118.400744,2014-12-30,21497,2014-12-29 08:13:03 UTC,,,,,,,,,J1772,US,,,,Public,,public,,,,,,,,,,,,,,,,,,,,,,,,,,,,,,
ELEC,Glendora City Hall Parking Lot,114 S Vista Bonita Ave,,Glendora,CA,91741,,626-914-8200,E,,Public,24 hours daily,,,,,,2,,,,,GPS,34.13556,-117.864,2014-12-30,21498,2014-12-30 22:09:30 UTC,P,,,,,,,,J1772,US,,,,Public,,public,,,PRKLT,,,,,,,,,,,,,,,,,,,,,,,,,,,
ELEC,CALTECH,370 S Holliston Ave,,Pasadena,CA,91106,,888-758-4389,E,,Public,24 hours daily,,,,,,1,,,ChargePoint Network,https://www.chargepoint.com,GPS,34.1394768,-118.1226044,2014-12-30,21516,2014-12-30 08:44:26 UTC,,,,,,,,,J1772,US,,,,Public,,public,,,,,,,,,,,,,,,,,,,,,,,,,,,,,,
ELEC,DoubleTree Hotel - Los Angeles - Westside,6161 Centinela Ave,,Culver City,CA,90230,,310-649-1776,E,,Public,24 hours daily; guest use only,,,,,,2,,,,,GPS,33.9826,-118.3966,2013-12-31,21524,2014-04-21 18:22:53 UTC,P,,,,,,,,J1772,US,,,,Public,,public,,,HTL,,,,,,,,,,,,,,,,,,,,,,,,,,,
ELEC,Westfield MainPlace Mall,2800 N Main St,,Santa Ana,CA,92705,,714-547-7800,E,,Public,24 hours daily,,,,,,1,,1 SP Inductive,,,GPS,33.77699,-117.871,2014-09-05,21535,2014-09-05 19:22:07 UTC,P,,,,,,,,J1772,US,,,,Public,,public,,,,,,,,,,,,,,,,,,,,,,,,,,,,,,
ELEC,San Bernardino City Hall,300 N D St,,San Bernardino,CA,92401,,909-384-5211,E,,Public,24 hours daily,,,,,,4,,,,,GPS,34.10459,-117.291,2013-12-31,21545,2014-12-12 20:51:57 UTC,P,,,,,,,,J1772,US,,,,Public,,public,,,MUNGOV,,,,,,,,,,,,,,,,,,,,,,,,,,,
ELEC,CITY OF SB EV2,1115 Anacapa St,,Santa Barbara,CA,93101,,888-758-4389,E,,Public,24 hours daily,,,,,2,2,,,ChargePoint Network,https://www.chargepoint.com,200-8,34.4236478,-119.7022711,2014-12-30,21557,2014-12-30 08:39:51 UTC,,,,,,,,,J1772 NEMA520,US,,,,Public,,public,,,,,,,,,,,,,,,,,,,,,,,,,,,,,,
ELEC,California State University - Channel Islands,1 University Dr,Located in lot A3,Camarillo,CA,93012,,805-437-8400,E,,Public,24 hours daily,,,,,,5,,,,,200-8,34.165363,-119.0451473,2014-12-04,21559,2014-12-04 15:16:31 UTC,P,,,,,,,,J1772,US,,,,Public,,public,,,CLGCMPS,,,,,,,,,,,,,,,,,,,,,,,,,,,
ELEC,Camarillo Premium Outlet,740 E Ventura Blvd,,Camarillo,CA,93010,,805-445-8520,E,,Public,24 hours daily,,,,,,,,2 SP Inductive  1 Avcon Conductive,,,200-8,34.217863,-119.0601797,2012-12-31,21560,2014-01-20 18:43:22 UTC,P,,,,,,,,,US,,,,Public,,public,,,SHPCNTR,,,,,,,,,,,,,,,,,,,,,,,,,,,
ELEC,Brea Downtown Parking,101 S Brea Blvd,,Brea,CA,92821,,714-990-7650,E,,Public,Garage business hours; 4 hour parking limit; pay lot,,,,,,3,,1 SP Inductive,,,200-8,33.9192454,-117.899168,2014-10-06,21561,2014-10-06 15:21:12 UTC,LG,,,,,,,,J1772,US,,,,Public,,public,,,PPRKGRG,,,,,,,,,,,,,,,,,,,,,,,,,,,
ELEC,Home Depot,2745 Teller Rd,In front of garden center,Newbury Park,CA,91320,,805-375-6680,E,,Public,24 hours daily,,,,,4,2,,,,,200-8,34.192692,-118.934553,2014-09-05,21565,2014-09-05 19:22:02 UTC,P,,,,,,,,J1772 NEMA515,US,,,,Public,,public,,,,,,,,,,,,,,,,,,,,,,,,,,,,,,
ELEC,Lake Casitas Municipal Water District - Recreational Area,Casitas Pass Rd & Baldwin Rd,Baldwin Road/Casitas Pass Road,Oak View,CA,93022,,805-649-2233,E,,Public,8am-5pm daily,,,,,3,1,,,,,GPS,34.418322,-119.3368,2014-12-30,21566,2014-12-30 21:58:29 UTC,P,,,,,,,,J1772 NEMA520,US,,,,Public,,public,,,RSF,,,,,,,,,,,,,,,,,,,,,,,,,,,
ELEC,Ojai City Hall,401 S Ventura Blvd,,Ojai,CA,93023,,805-646-5581,E,,Public,24 hours daily,,,,,,2,,,,,GPS,34.4447896,-119.2467592,2014-12-30,21567,2014-12-30 22:16:07 UTC,LG,,,,,,,,J1772,US,,,,Public,,public,,,MUNGOV,,,,,,,,,,,,,,,,,,,,,,,,,,,
ELEC,San Dimas Park & Ride,205 S San Dimas Ave,,San Dimas,CA,91773,,909-394-6200,E,,Public,24 hours daily,,,,,,2,,,,,200-8,34.105203,-117.807471,2014-12-30,21569,2014-12-30 21:59:50 UTC,P,,,,,,,,J1772,US,,,,Public,,public,,,PRKLT,,,,,,,,,,,,,,,,,,,,,,,,,,,
ELEC,Loews Santa Monica Beach Hotel,1700 Ocean Ave,,Santa Monica,CA,90401,,310-458-6700,E,,Public,24 hours daily; pay lot,,,,,,2,,,,,GPS,34.00907,-118.4928,2014-09-05,21575,2014-09-05 20:35:01 UTC,P,,,,,,,,J1772,US,,,,Public,,public,,,,,,,,,,,,,,,,,,,,,,,,,,,,,,
ELEC,COSTCO,2751 Skypark Dr,,Torrance,CA,90505,,888-758-4389,E,,Public,24 hours daily,,,,,,2,,,ChargePoint Network,https://www.chargepoint.com,200-8,33.805145,-118.334384,2014-12-30,21579,2014-12-30 09:07:59 UTC,,,,,,,,,J1772,US,,,,Public,,public,,,,,,,,,,,,,,,,,,,,,,,,,,,,,,
ELEC,Westfield Mall - West Covina,1200 W Covina Pkwy,,West Covina,CA,91790,,626-960-1881  626-939-8458,E,,Public,24 hours daily,,,,,,1,,1 SP Inductive,,,200-8,34.0686969,-117.934368,2014-12-30,21586,2014-12-30 22:13:51 UTC,LG,,,,,,,,J1772,US,,,,Public,,public,,,MUNGOV,,,,,,,,,,,,,,,,,,,,,,,,,,,
ELEC,West Covina Civic Center Parking Structure - Level 3,1444 W Garvey Ave S,,West Covina,CA,91790,,626-939-8458,E,,Public,Garage business hours; pay lot,,,,,,2,,,,,200-8,34.0715522,-117.9387946,2014-12-30,21587,2014-12-30 22:13:50 UTC,LG,,,,,,,,J1772,US,,,,Public,,public,,,MUNGOV,,,,,,,,,,,,,,,,,,,,,,,,,,,
ELEC,CITY OF ANAHEIM,800 W. Katella Ave.,,Anaheim,CA,92802,,888-758-4389,E,,Public,24 hours daily,,,,,,2,,,ChargePoint Network,https://www.chargepoint.com,200-8,33.8023925,-117.9197896,2014-12-30,21592,2014-12-30 08:53:37 UTC,,,,,,,,,J1772,US,,,,Public,,public,,,,,,,,,,,,,,,,,,,,,,,,,,,,,,
ELEC,City of Pasadena - El Molino Lot,100 N El Molino Ave,,Pasadena,CA,91101,,626-744-7665,E,,Public,24 hours daily; pay lot,,,,,,2,,,,,200-8,34.1474556,-118.1368866,2014-09-05,21594,2014-09-05 20:23:32 UTC,LG,,,,,,,,J1772,US,,,,Public,,public,,,,,,,,,,,,,,,,,,,,,,,,,,,,,,
ELEC,Southern California Edison - Rosemead Service Center,2131 Walnut Grove Ave,,Rosemead,CA,91770,,,E,,Private,,,,,,2,2,,,,,GPS,34.05334473,-118.0841599,2013-12-31,21597,2014-09-30 14:43:10 UTC,T,,,,,,,,J1772 NEMA520,US,,,,Privé,,private,,,UTL,,,,,,,,,,,,,,,,,,,,,,,,,,,
ELEC,CITY OF ANAHEIM,2695 E Katella Ave,,Anaheim,CA,92806,,888-758-4389,E,,Public,24 hours daily,,,,,,2,,,ChargePoint Network,https://www.chargepoint.com,200-8,33.807723,-117.876522,2014-12-30,21599,2014-12-30 08:53:38 UTC,,,,,,,,,J1772,US,,,,Public,,public,,,,,,,,,,,,,,,,,,,,,,,,,,,,,,
ELEC,Disneyland Hotel,1150 W Cerritos Ave,Located in the lower level valet lot,Anaheim,CA,92802,,714-778-6600,E,,Public,24 hours daily; pay lot,,,,,10,,,,,,200-8,33.8105885,-117.9285115,2014-09-05,21601,2014-09-05 19:25:36 UTC,P,,,,,,,,NEMA520,US,,,,Public,,public,,,,,,,,,,,,,,,,,,,,,,,,,,,,,,
ELEC,Angel Stadium / Metro Link Station,2150 Katella Ave,,Anaheim,CA,92806,,888-998-2546,E,,Public,MON: 24 hours | TUE: 24 hours | WED: 24 hours | THU: 24 hours | FRI: 24 hours | SAT: 24 hours | SUN: 24 hours,,,,,,1,,,Blink Network,https://blinkcharging.com,GPS,33.803393,-117.881628,2014-12-30,21602,2014-12-29 08:13:33 UTC,,,,,,,,,J1772,US,,,,Public,,public,,,,,,,,,,,,,,,,,,,,,,,,,,,,,,
ELEC,Ventura County Center,800 S Victoria Ave,,Ventura,CA,93009,,805-477-1917,E,,Public,8am-5pm daily,,,,,,1,,,,,GPS,34.267352,-119.2124,2014-12-30,21606,2014-12-30 22:16:27 UTC,LG,,,,,,,,J1772,US,,,,Public,,public,,,MUNGOV,,,,,,,,,,,,,,,,,,,,,,,,,,,
ELEC,Ventura County Air Pollution Control District,669 County Square Dr,,Ventura,CA,93003,,805-645-1400,E,,Public,8am-5pm daily,,,,,,3,,,,,GPS,34.268756,-119.2154,2014-12-30,21607,2014-12-30 22:16:27 UTC,LG,,,,,,,,J1772,US,,,,Public,,public,,,MUNGOV,,,,,,,,,,,,,,,,,,,,,,,,,,,
ELEC,Pacific View Mall,3295 E Main St,,Ventura,CA,93003,,805-642-5530,E,,Public,24 hours daily,,,,,,2,,1 Avcon Conductive,,,GPS,34.268,-119.2492,2014-12-30,21608,2014-12-30 22:13:14 UTC,P,,,,,,,,J1772,US,,,,Public,,public,,,SHPGML,,,,,,,,,,,,,,,,,,,,,,,,,,,
ELEC,LADWP - Scattergood Generating Facility,12700 Vista del Mar,,Playa del Rey,CA,90293,,,E,,Private - Government only,,,,,,,,,7 Conductive 240V,,,200-8,33.918907,-118.424235,2012-12-31,21609,2014-09-02 22:10:12 UTC,LG,,,,,,,,,US,,,,Privé - Réservé au gouvernement,,private,GOVERNMENT,,UTL,,,,,,,,,,,,,,,,,,,,,,,,,,,
ELEC,Janss Marketplace,275 N. Moorpark Rd.,,Thousand Oaks,CA,91360,,888-998-2546,E,,Public,MON: 24 hours | TUE: 24 hours | WED: 24 hours | THU: 24 hours | FRI: 24 hours | SAT: 24 hours | SUN: 24 hours,,,,,,2,,,Blink Network,https://blinkcharging.com,GPS,34.184008,-118.877536,2014-12-30,21640,2014-12-29 08:10:23 UTC,,,,,,,,,J1772,US,,,,Public,,public,,,,,,,,,,,,,,,,,,,,,,,,,,,,,,
ELEC,UC Davis Extension,1441 Research Park Dr,,Davis,CA,95616,,530-752-8277,E,,Public,24 hours daily,,,,,,2,,1 SP Inductive,,,200-8,38.5389395,-121.7320766,2013-12-31,21673,2014-12-19 20:32:35 UTC,SG,,,,,,,,J1772,US,,,,Public,,public,,,CLGCMPS,,,,,,,,,,,,,,,,,,,,,,,,,,,
ELEC,Kaiser Office Building,1650 Response Rd,,Sacramento,CA,95815,,,E,,Private,Employee use only,,,,,,,,1 SP Inductive  8 Conductive 120V/240V NEMA 14-50,,,200-8,38.596304,-121.429696,2014-12-30,21675,2014-12-30 21:59:17 UTC,P,,,,,,,,,US,,,,Privé,,private,,,OFCBLD,,,,,,,,,,,,,,,,,,,,,,,,,,,
ELEC,First Bank of San Luis Obispo,995 Higuera St,,San Luis Obispo,CA,93401,,805-541-6100,E,,Public,24 hours daily,,,,,,1,,1 LP Inductive  1 Avcon Conductive 520C,,,200-8,35.280697,-120.660696,2012-12-31,21712,2014-01-20 18:33:35 UTC,P,,,,,,,,J1772,US,,,,Public,,public,,,BNK,,,,,,,,,,,,,,,,,,,,,,,,,,,
ELEC,San Luis Obispo County Air Pollution Control District,3433 Roberto Ct,,San Luis Obispo,CA,93401,,805-781-5912,E,,Public,8am-5pm M-F; see front desk for code,,,,,1,1,,,,,GPS,35.25939,-120.64492,2014-12-30,21713,2014-12-30 22:04:01 UTC,LG,,,,,,,,J1772 NEMA520,US,,,,Public,,public,,,MUNGOV,,,,,,,,,,,,,,,,,,,,,,,,,,,
ELEC,Clean Fuel Connection Inc,11800 Clarke St,,Arcadia,CA,91006,,888-890-4638,E,,Private,Public charging available in emergency situations; call ahead for arrangements,,,,,,1,,1 SP Inductive,,,200-8,34.100913,-118.004762,2014-12-30,21791,2014-12-30 22:12:45 UTC,P,,,,,,,,J1772,US,,,,Privé,,private,,,OFCBLD,,,,,,,,,,,,,,,,,,,,,,,,,,,
ELEC,Baldwin Park Metrolink - Lot 2,3825 Downing Ave,,Baldwin Park,CA,91706,,800-371-5465,E,,Public,24 hours daily,,,,,,,,1 SP Inductive  1 Avcon Conductive,,,200-8,34.0848329,-117.9586829,2012-12-31,21792,2014-09-03 20:20:25 UTC,LG,,,,,,,,,US,,,,Public,,public,,,PRKLT,,,,,,,,,,,,,,,,,,,,,,,,,,,
ELEC,Soquel & Front Garage,601 Front St,,Santa Cruz,CA,95061,,831-420-5184,E,,Public,24 hours daily,,,,,3,3,,2 SP Inductive,,,200-8,36.9732361,-122.0245482,2014-12-30,21794,2014-12-30 21:59:53 UTC,P,,,,,,,,J1772 NEMA520,US,,,,Public,,public,,,PRKGRG,,,,,,,,,,,,,,,,,,,,,,,,,,,
ELEC,LADWP - Wilmington District Yard,315 N Island Ave,,Wilmington,CA,90744,,,E,,Private - Government only,,,,,,,,,1 Conductive 240V,,,200-8,33.7729784,-118.2658228,2012-12-31,25171,2014-09-02 22:11:00 UTC,LG,,,,,,,,,US,,,,Privé - Réservé au gouvernement,,private,GOVERNMENT,,UTL,,,,,,,,,,,,,,,,,,,,,,,,,,,
ELEC,Fair Oaks - Orangevale - Community Library,11601 Fair Oaks Blvd,,Fair Oaks,CA,95628,,916-264-2700,E,,Public,24 hours daily,,,,,,2,,,,,GPS,38.66292,-121.2634,2014-12-30,25491,2014-12-30 22:09:22 UTC,LG,,,,,,,,J1772,US,,,,Public,,public,,,PRKLT,,,,,,,,,,,,,,,,,,,,,,,,,,,
ELEC,City of Sacramento - City Hall Public Parking Garage,10th St & I St,"Lot I, Level 8, Waterfall Building.",Sacramento,CA,95814,,916-264-5011,E,,Public,24 hours daily; pay lot,,,,,10,5,,7 SP Inductive; 10 Avcon Inductive,,,GPS,38.58098,-121.493,2014-12-30,25493,2014-12-30 22:09:01 UTC,LG,,,,,,,,J1772 NEMA520,US,,,,Public,,public,,,MUNGOV,,,,,,,,,,,,,,,,,,,,,,,,,,,
ELEC,Sutter Galleria Mall - University of California - Davis Extension,2901 K St,,Sacramento,CA,95816,,916-327-7072,E,,Public,24 hours daily; pay lot,,,,,1,1,,,,,200-8,38.5729034,-121.4674155,2014-12-30,25494,2014-12-30 21:59:43 UTC,P,,,,,,,,J1772 NEMA520,US,,,,Public,,public,,,SHPGML,,,,,,,,,,,,,,,,,,,,,,,,,,,
ELEC,North Highlands Library,4235 Antelope Rd,,Antelope,CA,95843,,916-264-2700,E,,Public,24 hours daily,,,,,,1,,,,,GPS,38.7042,-121.365,2014-09-05,25497,2014-09-05 20:24:09 UTC,LG,,,,,,,,J1772,US,,,,Public,,public,,,,,,,,,,,,,,,,,,,,,,,,,,,,,,
ELEC,ESQUIRE PLAZA,1215 K St,,Sacramento,CA,95814,,888-758-4389,E,,Public,24 hours daily,,,,,,2,,,ChargePoint Network,https://www.chargepoint.com,200-8,38.5784868,-121.4898646,2014-12-30,25499,2014-12-30 09:01:01 UTC,,,,,,,,,J1772,US,,,,Public,,public,,,,,,,,,,,,,,,,,,,,,,,,,,,,,,
ELEC,Gateway Oaks Metro Center,2710 Gateway Oaks Dr,,Sacramento,CA,95833,,916-921-5005,E,,Public,24 hours daily,,,,,,1,,,,,200-8,38.6160825,-121.5167284,2013-12-31,25500,2014-04-21 18:22:55 UTC,P,,,,,,,,J1772,US,,,,Public,,public,,,OFCBLD,,,,,,,,,,,,,,,,,,,,,,,,,,,
ELEC,Belle Cooledge Library,5600 S Land Park Dr,,Sacramento,CA,95822,,916-264-2700,E,,Public,24 hours daily,,,,,,1,,,,,GPS,38.524403,-121.5112,2014-12-30,25502,2014-12-30 22:09:21 UTC,LG,,,,,,,,J1772,US,,,,Public,,public,,,LBRY,,,,,,,,,,,,,,,,,,,,,,,,,,,
ELEC,Mosquito Road Park and Ride,Mosquito Rd & Clay St,,Placerville,CA,95667,,530-642-5383,E,,Public,Lot business hours; overnight parking prohibited,,,,,,2,,1 Avcon Conductive,,,GPS,38.73323,-120.78962,2013-12-31,25507,2014-12-17 21:48:53 UTC,P,,,,,,,,J1772,US,,,,Public,,public,,,MUNGOV,,,,,,,,,,,,,,,,,,,,,,,,,,,
ELEC,Vacaville Cultural Center,1000 Ulatis Dr,,Vacaville,CA,95687,,707-449-5424,E,,Public,24 hours daily,,,,,,1,,1 SP Inductive,,,GPS,38.356027,-121.9628,2014-12-30,25511,2014-12-30 22:13:58 UTC,LG,,,,,,,,J1772,US,,,,Public,,public,,,OTH,,,,,,,,,,,,,,,,,,,,,,,,,,,
ELEC,Stars Recreation Center,155 Browns Valley Pkwy,,Vacaville,CA,95688,,707-449-5424,E,,Public,24 hours daily,,,,,,3,,1 SP Inductive,,,GPS,38.36557,-121.967,2014-12-30,25514,2014-12-30 22:11:14 UTC,LG,,,,,,,,J1772,US,,,,Public,,public,,,RSF,,,,,,,,,,,,,,,,,,,,,,,,,,,
ELEC,Vacaville Regional Transport Center - Tesla,190 Hickory Ln,,Vacaville,CA,95688,,707-449-5424,E,,Public,24 hours daily,,,,,,3,,1 SP Inductive,,,GPS,38.35172,-121.987,2014-12-30,25515,2014-12-30 22:13:58 UTC,LG,,,,,,,,J1772 TESLA,US,,,,Public,,public,,,TRVCNTR,,,,,,,,,,,,,,,,,,,,,,,,,,,
ELEC,Office of Housing & Redevelopment,40 Eldridge Ave,At Morales Ct,Vacaville,CA,95688,,707-449-5424,E,,Public,24 hours daily,,,,,,1,,1 SP Inductive,,,200-8,38.35697,-122.002,2013-02-25,25516,2014-11-11 22:53:15 UTC,LG,,,,,,,,J1772,US,,,,Public,,public,,,OFCBLD,,,,,,,,,,,,,,,,,,,,,,,,,,,
ELEC,KUIC Parking Lot - Lot 9,500 Catherine St,At Davis St,Vacaville,CA,95688,,707-449-5424,E,,Public,24 hours daily,,,,,,1,,1 SP Inductive,,,GPS,38.355867,-121.9862,2014-12-30,25517,2014-12-30 22:13:55 UTC,LG,,,,,,,,J1772,US,,,,Public,,public,,,PRKLT,,,,,,,,,,,,,,,,,,,,,,,,,,,
ELEC,Vacaville City Hall,650 Merchant St,,Vacaville,CA,95688,,,E,,Private - Government only,,,,,,,3,,3 SP Inductive,,,200-8,38.35147,-121.995,2014-12-30,25518,2014-12-30 22:13:57 UTC,LG,,,,,,,,J1772,US,,,,Privé - Réservé au gouvernement,,private,GOVERNMENT,,MUNGOV,,,,,,,,,,,,,,,,,,,,,,,,,,,
ELEC,Citrus Heights City Hall,6237 Fountain Square Dr,,Citrus Heights,CA,95621,,916-725-2448,E,,Public,24 hours daily,,,,,,3,,1 SP Inductive,,,GPS,38.67995,-121.2989,2014-12-30,25519,2014-12-30 22:13:54 UTC,LG,,,,,,,,J1772,US,,,,Public,,public,,,MUNGOV,,,,,,,,,,,,,,,,,,,,,,,,,,,
ELEC,Pitt School Plaza,1440 Ary Ln,,Dixon,CA,95620,,707-449-5424,E,,Public,24 hours daily,,,,,1,,,1 SP Inductive  1 Tesla Conductive,,,200-8,38.45754,-121.842552,2013-08-25,25520,2014-11-11 22:53:28 UTC,LG,,,,,,,,NEMA520,US,,,,Public,,public,,,OTH,,,,,,,,,,,,,,,,,,,,,,,,,,,
ELEC,El Dorado County Government Center,2850 Fairlane Ct,Building C parking lot,Placerville,CA,95667,,530-621-5300,E,,Public,24 hours daily,,,,,,1,,1 SP Inductive,,,GPS,38.72799,-120.828,2013-12-31,25522,2014-12-17 21:48:28 UTC,P,,,,,,,,J1772,US,,,,Public,,public,,,MUNGOV,,,,,,,,,,,,,,,,,,,,,,,,,,,
ELEC,El Dorado Transit Park & Ride,4640 Post St,,El Dorado Hills,CA,95762,,530-642-5383,E,,Public,24 hours daily,,,,,,1,,1 SP Inductive,,,GPS,38.6476,-121.067,2013-12-31,25523,2014-12-17 21:48:41 UTC,P,,,,,,,,J1772,US,,,,Public,,public,,,MUNGOV,,,,,,,,,,,,,,,,,,,,,,,,,,,
ELEC,Lowe's of Elk Grove,8369 Power Inn Rd,Located near the McDonald's,Elk Grove,CA,95624,,916-688-1922,E,,Public,24 hours daily,,,,,,1,,1 SP Inductive,,,200-8,38.453835,-121.4038254,2014-12-30,25524,2014-12-30 22:16:03 UTC,P,,,,,,,,J1772,US,,,,Public,,public,,,SHPCNTR,,,,,,,,,,,,,,,,,,,,,,,,,,,
ELEC,Elk Grove Kia,8480 Laguna Grove Dr,,Elk Grove,CA,95758,,,E,,Private,Service center use only,,,,,,1,,,,,GPS,38.40553,-121.391,2014-12-04,25525,2014-12-04 15:06:18 UTC,P,,,,,,,,J1772,US,,,,Privé,,private,,,CRDLR,,,,,,,,,,,,,,,,,,,,,,,,,,,
ELEC,Granite Bay Business Park,4180 Douglas Blvd,,Granite Bay,CA,95746,,,E,,Public,24 hours daily,,,,,,,,1 SP Inductive  1 Avcon Conductive,,,200-8,38.740595,-121.223488,2012-12-31,25526,2014-12-08 15:40:51 UTC,P,,,,,,,,,US,,,,Public,,public,,,OFCBLD,,,,,,,,,,,,,,,,,,,,,,,,,,,
ELEC,CVS Pharmacy,8455 Auburn-Folsom Rd,At Douglas Blvd,Granite Bay,CA,95746,,916-791-1189,E,,Public,24 hours daily,,,,,,1,,,,,GPS,38.74453,-121.17,2013-12-31,25527,2014-04-21 18:22:56 UTC,P,,,,,,,,J1772,US,,,,Public,,public,,,CNVNSTR,,,,,,,,,,,,,,,,,,,,,,,,,,,
ELEC,Carmichael Library,5605 Marconi Ave,At La Vista,Carmichael,CA,95608,,916-264-2700  916-264-2920,E,,Public,24 hours daily,,,,,,1,,1 SP Inductive,,,GPS,38.617933,-121.3339,2014-12-30,25610,2014-12-30 22:09:21 UTC,P,,,,,,,,J1772,US,,,,Public,,public,,,LBRY,,,,,,,,,,,,,,,,,,,,,,,,,,,
ELEC,Rio Vista City Hall,1 Main St,,Rio Vista,CA,94571,,707-449-5424,E,,Public,24 hours daily,,,,,1,1,,1 SP Inductive,,,GPS,38.15485,-121.69,2014-12-30,27302,2014-12-30 22:16:11 UTC,LG,,,,,,,,J1772 NEMA515,US,,,,Public,,public,,,MUNGOV,,,,,,,,,,,,,,,,,,,,,,,,,,,
ELEC,Southern California Edison - Energy Education Center - Tulare,4175 S Laspina St,,Tulare,CA,93274,,800-772-4822,E,,Public,8am-5pm M-F,,,,,2,3,,,,,GPS,36.167417,-119.327744,2014-12-30,27303,2014-12-30 22:12:03 UTC,T,,,,,,,,J1772 NEMA520,US,,,,Public,,public,,,UTL,,,,,,,,,,,,,,,,,,,,,,,,,,,
ELEC,Southern California Edison - Antelope Valley Service Center,42060 10th St W,,Lancaster,CA,93539,,,E,,Private,,,,,,,,,2 SP Inductive,,,200-8,34.6466339,-118.1476554,2012-07-31,27304,2014-09-30 14:38:27 UTC,T,,,,,,,,,US,,,,Privé,,private,,,UTL,,,,,,,,,,,,,,,,,,,,,,,,,,,
ELEC,Southern California Edison - Catalina Service Center,1 Pebbly Beach Rd,,Avalon,CA,90704,,,E,,Private,,,,,,,,,2 SP Inductive,,,200-8,33.3348396,-118.3117957,2012-07-31,27306,2014-09-30 14:38:37 UTC,T,,,,,,,,,US,,,,Privé,,private,,,UTL,,,,,,,,,,,,,,,,,,,,,,,,,,,
ELEC,Southern California Edison - Central Orange County,1241 S Grande Ave,,Santa Ana,CA,92705,,,E,,Private,,,,,,,2,,23 SP Inductive,,,200-8,33.7327386,-117.8504117,2012-07-31,27307,2014-09-30 14:39:46 UTC,T,,,,,,,,J1772,US,,,,Privé,,private,,,UTL,,,,,,,,,,,,,,,,,,,,,,,,,,,
ELEC,Southern California Edison - Dominguez Hills Service Station,1924 Cashdan St,,Compton,CA,90224,,,E,,Private,,,,,,,3,,1 LP Inductive  14 SP Inductive,,,200-8,33.855141,-118.234048,2012-07-31,27308,2014-09-30 14:40:07 UTC,T,,,,,,,,J1772,US,,,,Privé,,private,,,UTL,,,,,,,,,,,,,,,,,,,,,,,,,,,
ELEC,Southern California Edison - Long Beach Service Center,2800 E Willow St,,Long Beach,CA,90806,,,E,,Private,,,,,,,4,,8 LP Inductive  19 SP Inductive,,,200-8,33.8035349,-118.157638,2014-12-30,27310,2014-12-30 22:12:03 UTC,T,,,,,,,,J1772,US,,,,Privé,,private,,,UTL,,,,,,,,,,,,,,,,,,,,,,,,,,,
ELEC,Southern California Edison - Monrovia Service Center,1440 S California Ave,,Monrovia,CA,91016,,,E,,Private,,,,,,,,,4 SP Inductive,,,200-8,34.136276,-117.993909,2012-07-31,27311,2014-09-30 14:41:18 UTC,T,,,,,,,,,US,,,,Privé,,private,,,UTL,,,,,,,,,,,,,,,,,,,,,,,,,,,
ELEC,Southern California Edison - Montebello Service Station,1000 Potrero Grande,,Monterey Park,CA,91754,,,E,,Private,,,,,,,1,,1 LP Inductive  4 SP Inductive,,,200-8,34.0448498,-118.1001162,2012-07-31,27312,2014-09-30 14:41:29 UTC,T,,,,,,,,J1772,US,,,,Privé,,private,,,UTL,,,,,,,,,,,,,,,,,,,,,,,,,,,
ELEC,Southern California Edison - North Orange County,1851 W Valencia Dr,,Fullerton,CA,92633,,,E,,Private,,,,,,,2,,11 SP Inductive,,,200-8,33.8665381,-117.9608866,2012-07-31,27313,2014-09-30 14:41:37 UTC,T,,,,,,,,J1772,US,,,,Privé,,private,,,UTL,,,,,,,,,,,,,,,,,,,,,,,,,,,
ELEC,Southern California Edison - Ontario Service Center,1351 E Francis St,,Ontario,CA,91761,,,E,,Private,,,,,,,,,2 LP Inductive  12 SP Inductive,,,200-8,34.042657,-117.625018,2012-07-31,27314,2014-09-30 14:41:49 UTC,T,,,,,,,,,US,,,,Privé,,private,,,UTL,,,,,,,,,,,,,,,,,,,,,,,,,,,
ELEC,Southern California Edison - Orange Coast Service Center,7333 Bolsa Ave,,Westminster,CA,92683,,,E,,Private,,,,,,,2,,1 LP Inductive  11 SP Inductive,,,200-8,33.7446997,-118.0007638,2012-07-31,27315,2014-09-30 14:41:58 UTC,T,,,,,,,,J1772,US,,,,Privé,,private,,,UTL,,,,,,,,,,,,,,,,,,,,,,,,,,,
ELEC,Southern California Edison - Palm Springs Service Center,36100 Cathedral Canyon Dr,,Cathedral City,CA,92234,,,E,,Private,,,,,,,,,3 SP Inductive,,,200-8,33.785424,-116.465959,2012-07-31,27316,2014-09-30 14:42:07 UTC,T,,,,,,,,,US,,,,Privé,,private,,,UTL,,,,,,,,,,,,,,,,,,,,,,,,,,,
ELEC,Southern California Edison - Saddleback Service Center,14155 Bake Pkwy,,Irvine,CA,92718,,,E,,Private,,,,,,,,,1 LP Inductive  15 SP Inductive,,,200-8,33.6537158,-117.7044015,2012-07-31,27317,2014-09-30 14:43:30 UTC,T,,,,,,,,,US,,,,Privé,,private,,,UTL,,,,,,,,,,,,,,,,,,,,,,,,,,,
ELEC,Southern California Edison - San Joaquin Service Center,2425 S Blackstone St,,Tulare,CA,93274,,,E,,Private,,,,,,,,,1 SP Inductive,,,GPS,36.184617,-119.3311505,2013-12-31,27318,2014-09-30 14:44:00 UTC,T,,,,,,,,,US,,,,Privé,,private,,,UTL,,,,,,,,,,,,,,,,,,,,,,,,,,,
ELEC,Southern California Edison - Santa Monica Service Center,1721 22nd St,,Santa Monica,CA,90404,,,E,,Private,,,,,,,2,,1 LP Inductive  11 SP Inductive,,,200-8,34.025555,-118.4728222,2012-07-31,27320,2014-09-30 14:44:16 UTC,T,,,,,,,,J1772,US,,,,Privé,,private,,,UTL,,,,,,,,,,,,,,,,,,,,,,,,,,,
ELEC,Southern California Edison - Shaver Lake Service Center,42696 Tollhouse Rd,,Shaver Lake,CA,93664,,,E,,Private,,,,,,,,,1 SP Inductive,,,200-8,37.1226609,-119.3147417,2012-07-31,27321,2014-09-30 14:44:28 UTC,T,,,,,,,,,US,,,,Privé,,private,,,UTL,,,,,,,,,,,,,,,,,,,,,,,,,,,
ELEC,Southern California Edison - Songs Service Center,5000 Pacific Coast Hwy,,San Clemente,CA,92674,,,E,,Private,,,,,,,,,1 LP Inductive,,,GPS,33.52008,-117.760822,2012-07-31,27322,2014-09-30 14:44:35 UTC,T,,,,,,,,,US,,,,Privé,,private,,,UTL,,,,,,,,,,,,,,,,,,,,,,,,,,,
ELEC,Southern California Edison - South Bay Service Center,505 Maple Ave,,Torrance,CA,90503,,,E,,Private,,,,,,,,,11 SP Inductive,,,200-8,33.843659,-118.342405,2012-07-31,27323,2014-09-30 14:44:44 UTC,T,,,,,,,,,US,,,,Privé,,private,,,UTL,,,,,,,,,,,,,,,,,,,,,,,,,,,
ELEC,Southern California Edison - Thousand Oaks Service Center,3589 Foothill Dr,,Thousand Oaks,CA,91361,,,E,,Private,,,,,,,,,1 LP Inductive  2 SP Inductive,,,GPS,34.1621502,-118.8359401,2012-07-31,27324,2014-09-30 14:44:51 UTC,T,,,,,,,,,US,,,,Privé,,private,,,UTL,,,,,,,,,,,,,,,,,,,,,,,,,,,
ELEC,Southern California Edison - Valencia Service Center,25625 W Rye Canyon Rd,,Valencia,CA,91355,,,E,,Private,,,,,,,,,3 SP Inductive,,,200-8,34.4337728,-118.5855526,2012-07-31,27325,2014-09-30 14:45:01 UTC,T,,,,,,,,,US,,,,Privé,,private,,,UTL,,,,,,,,,,,,,,,,,,,,,,,,,,,
ELEC,Southern California Edison - Ventura Service Center,10060 Telegraph Rd,,Ventura,CA,93004,,,E,,Private,,,,,,,,,7 SP Inductive,,,200-8,34.2860491,-119.1762718,2012-07-31,27326,2014-09-30 14:45:09 UTC,T,,,,,,,,,US,,,,Privé,,private,,,UTL,,,,,,,,,,,,,,,,,,,,,,,,,,,
ELEC,Benicia City Hall ,250 E L St,,Benicia,CA,94510,,707-449-5424,E,,Public,24 hours daily,,,,,,1,,1 SP Inductive,,,GPS,38.052033,-122.153,2013-04-25,27327,2014-09-03 17:44:42 UTC,LG,,,,,,,,J1772,US,,,,Public,,public,,,MUNGOV,,,,,,,,,,,,,,,,,,,,,,,,,,,
ELEC,Fairfield City Hall,1000 Webster St,,Fairfield,CA,94533,,707-428-7414,E,,Public,24 hours daily,,,,,,2,,,,,200-8,38.2514613,-122.0433643,2014-12-04,27328,2014-12-04 15:16:58 UTC,LG,,,,,,,,J1772,US,,,,Public,,public,,,MUNGOV,,,,,,,,,,,,,,,,,,,,,,,,,,,
ELEC,Solano Community College,4000 Suisun Valley Rd,,Fairfield,CA,94534,,707-449-5424,E,,Public,24 hours daily,,,,,,3,,1 SP Inductive,,,GPS,38.23723,-122.123,2014-12-30,27329,2014-12-30 22:13:56 UTC,LG,,,,,,,,J1772,US,,,,Public,,public,,,CLGCMPS,,,,,,,,,,,,,,,,,,,,,,,,,,,
ELEC,Suisun City Civic Center,701 Civic Center Blvd,,Suisun City,CA,94585,,707-449-5424,E,,Public,24 hours daily,,,,,,1,,1 SP Inductive,,,GPS,38.23753,-122.037,2014-12-30,27330,2014-12-30 21:58:47 UTC,LG,,,,,,,,J1772,US,,,,Public,,public,,,MUNGOV,,,,,,,,,,,,,,,,,,,,,,,,,,,
ELEC,Suisun Amtrak Station Park & Ride Lot,650 Lotz Way,At Main St,Suisun City,CA,94585,,707-449-5424,E,,Public,24 hours daily,,,,,,1,,1 SP Inductive,,,GPS,38.24337,-122.04,2014-12-30,27331,2014-12-30 22:16:26 UTC,LG,,,,,,,,J1772,US,,,,Public,,public,,,PRKLT,,,,,,,,,,,,,,,,,,,,,,,,,,,
ELEC,Bella Vista Road Park & Ride Lot - Tesla,782 Davis Ct,,Vacaville,CA,95687,,707-449-5424,E,,Public,24 hours daily,,,,,,1,,,,,GPS,38.34962,-121.987,2013-03-31,27332,2014-11-11 22:52:09 UTC,LG,,,,,,,,J1772,US,,,,Public,,public,,,PRKLT,,,,,,,,,,,,,,,,,,,,,,,,,,,
ELEC,Vallejo Ferry Terminal,495 Mare Island Way,,Vallejo,CA,94590,,707-449-5424,E,,Public,24 hours daily,,,,,,,,2 SP Inductive  1 Avcon Conductive  1 Tesla Conductive,,,200-8,38.1025259,-122.2640626,2013-08-25,27335,2014-11-11 22:55:29 UTC,LG,,,,,,,,,US,,,,Public,,public,,,OTH,,,,,,,,,,,,,,,,,,,,,,,,,,,
ELEC,Sacramento International Airport - Terminal A Garage - Daily,Lindbergh Dr,"Levels 2, 3, 4, 5, and 6",Sacramento,CA,95837,,916-874-0670,E,,Public,24 hours daily; pay lot,,,,,,10,,5 SP Inductive,,,GPS,38.69033,-121.5871,2014-12-30,28005,2014-12-30 22:09:13 UTC,P,,,,,,,,J1772,US,,,,Public,,public,,,ARPRT,,,,,,,,,,,,,,,,,,,,,,,,,,,
ELEC,Sacramento International Airport - Terminal A Garage - Hourly,Lindbergh Dr,Level 1,Sacramento,CA,95837,,916-874-0670,E,,Public,24 hours daily; pay lot,,,,,,2,,1 SP Inductive,,,GPS,38.69033,-121.5871,2014-12-30,28006,2014-12-30 22:09:14 UTC,P,,,,,,,,J1772,US,,,,Public,,public,,,ARPRT,,,,,,,,,,,,,,,,,,,,,,,,,,,
ELEC,Los Angeles International Airport (LAX) - Lot 1 ,1 World Way,Central Terminal Area (CTA) - P1,Los Angeles,CA,90045,,310-646-2911,E,,Public,24 hours daily; pay lot,,,,,,13,,3 SP Inductive,,,GPS,33.94474,-118.4,2014-12-30,28007,2014-12-30 22:09:09 UTC,LG,,,,,,,,J1772,US,,,,Public,,public,,,ARPRT,,,,,,,,,,,,,,,,,,,,,,,,,,,
ELEC,CALTECH,405 S Wilson Ave,,Pasadena,CA,91106,,888-758-4389,E,,Public,24 hours daily,,,,,,2,,,ChargePoint Network,https://www.chargepoint.com,200-8,34.1384874,-118.1282761,2014-12-30,28008,2014-12-30 08:44:26 UTC,,,,,,,,,J1772,US,,,,Public,,public,,,,,,,,,,,,,,,,,,,,,,,,,,,,,,
ELEC,SAN JOSE,44 S 4th St,,San Jose,CA,95112,,888-758-4389,E,,Public,24 hours daily,,,,,,4,,,ChargePoint Network,https://www.chargepoint.com,200-8,37.3368338,-121.8861582,2014-12-30,28844,2014-12-30 08:40:42 UTC,,,,,,,,,J1772,US,,,,Public,,public,,,,,,,,,,,,,,,,,,,,,,,,,,,,,,
ELEC,The Famous Pearson Fuel Depot,4067 El Cajon Blvd.,,San Diego,CA,92105,,888-998-2546,E,,Public,MON: 24 hours | TUE: 24 hours | WED: 24 hours | THU: 24 hours | FRI: 24 hours | SAT: 24 hours | SUN: 24 hours,,,,,,5,,,Blink Network,https://blinkcharging.com,GPS,32.754954,-117.107457,2014-12-30,29684,2014-12-29 08:11:42 UTC,,,,,,,,,J1772,US,,,,Public,,public,,,,,,,,,,,,,,,,,,,,,,,,,,,,,,
ELEC,Vacaville Police Headquarters,660 Merchant St,,Vacaville,CA,95688,,,E,,Private - Government only,,,,,,,,,2 SP Inductive,,,200-8,38.3501299,-121.9949806,2013-08-25,29862,2014-12-08 18:56:55 UTC,LG,,,,,,,,,US,,,,Privé - Réservé au gouvernement,,private,GOVERNMENT,,MUNGOV,,,,,,,,,,,,,,,,,,,,,,,,,,,
ELEC,Solano County Government Center Parking Structure,501 Union Ave,,Fairfield,CA,94533,,707-449-5424,E,,Public,24 hours daily,,,,,,4,,1 SP Inductive,,,GPS,38.2470715,-122.0405343,2014-12-30,29863,2014-12-30 22:16:24 UTC,LG,,,,,,,,J1772,US,,,,Public,,public,,,MUNGOV,,,,,,,,,,,,,,,,,,,,,,,,,,,
ELEC,Southern California Edison - Redlands Service Center,287 Tennessee St,,Redlands,CA,92373,,,E,,Private,,,,,,,,,3 SP Inductive,,,200-8,34.0554254,-117.2000263,2012-07-31,32849,2014-09-30 14:42:33 UTC,T,,,,,,,,,US,,,,Privé,,private,,,UTL,,,,,,,,,,,,,,,,,,,,,,,,,,,
ELEC,Southern California Edison - Sacramento Office,1201 K St,,Sacramento,CA,95831,,,E,,Private,,,,,,,1,,,,,200-8,38.5786564,-121.4908975,2012-07-31,32850,2014-09-30 14:43:21 UTC,T,,,,,,,,J1772,US,,,,Privé,,private,,,UTL,,,,,,,,,,,,,,,,,,,,,,,,,,,
ELEC,Southern California Edison - San Jacinto Service Center,26100 Menifee Rd,,Romoland,CA,92585,,,E,,Private,,,,,,,,,4 SP Inductive,,,200-8,33.7400971,-117.1540652,2012-07-31,32853,2014-09-30 14:43:52 UTC,T,,,,,,,,,US,,,,Privé,,private,,,UTL,,,,,,,,,,,,,,,,,,,,,,,,,,,
ELEC,Southern California Edison - Victorville Service Center,12353 Hesperia Rd,,Victorville,CA,92392,,,E,,Private,,,,,,,,,1 SP Inductive,,,200-8,34.475937,-117.289514,2012-07-31,32854,2014-09-30 14:45:18 UTC,T,,,,,,,,,US,,,,Privé,,private,,,UTL,,,,,,,,,,,,,,,,,,,,,,,,,,,
ELEC,LADWP - Boylston,1141 W 2nd St,At Beaudry Ave,Los Angeles,CA,90026,,,E,,Private - Government only,,,,,,,,,1 Conductive,,,200-8,34.0582929,-118.2557788,2012-12-31,33177,2014-09-02 22:07:58 UTC,LG,,,,,,,,,US,,,,Privé - Réservé au gouvernement,,private,GOVERNMENT,,UTL,,,,,,,,,,,,,,,,,,,,,,,,,,,
ELEC,LADWP - Central District,1324 S Wall St,North of 15th St,Los Angeles,CA,90015,,,E,,Private - Government only,,,,,,,,,1 Conductive,,,200-8,34.033429,-118.2570014,2012-12-31,33178,2014-09-02 22:08:09 UTC,LG,,,,,,,,,US,,,,Privé - Réservé au gouvernement,,private,GOVERNMENT,,UTL,,,,,,,,,,,,,,,,,,,,,,,,,,,
ELEC,LADWP - Lincoln Heights District,3101 Artesian St,Between W Ave 26 and W Ave 33,Los Angeles,CA,90031,,,E,,Private - Government only,,,,,,,20,,,,,200-8,34.0820573,-118.2171527,2013-12-31,33179,2014-09-02 22:08:43 UTC,LG,,,,,,,,J1772,US,,,,Privé - Réservé au gouvernement,,private,GOVERNMENT,,UTL,,,,,,,,,,,,,,,,,,,,,,,,,,,
ELEC,LADWP - Receiving Station C,900 E Lomita Blvd,East of Wilmington Ave,Wilmington,CA,90744,,,E,,Private - Government only,,,,,,,,,1 Conductive,,,200-8,33.7994415,-118.2584214,2012-12-31,33180,2014-09-02 22:09:03 UTC,LG,,,,,,,,,US,,,,Privé - Réservé au gouvernement,,private,GOVERNMENT,,UTL,,,,,,,,,,,,,,,,,,,,,,,,,,,
ELEC,LADWP - Valley Center Admin Lot,14401 Saticoy St,At Van Nuys Blvd,Van Nuys,CA,91405,,,E,,Private - Government only,,,,,,,,,1 Other Conductive,,,200-8,34.2087577,-118.4444,2012-12-31,33182,2014-09-02 22:10:32 UTC,LG,,,,,,,,,US,,,,Privé - Réservé au gouvernement,,private,GOVERNMENT,,UTL,,,,,,,,,,,,,,,,,,,,,,,,,,,
ELEC,LADWP - Valley Generating Station,11801 Sheldon St,Between Glenoaks Blvd and San Fernando Rd,Sun Valley,CA,91352,,,E,,Private - Government only,,,,,,,,,1 Conductive,,,200-8,34.2420746,-118.3899441,2012-12-31,33183,2014-09-02 22:10:37 UTC,LG,,,,,,,,,US,,,,Privé - Réservé au gouvernement,,private,GOVERNMENT,,UTL,,,,,,,,,,,,,,,,,,,,,,,,,,,
ELEC,Stanford University,360 Oak Rd,Parking Structure 5,Stanford,CA,94305,,888-758-4389,E,,Public,24 hours daily; permit required 6am-4pm M-F,,,,,,,,1 SP Inductive,,,GPS,37.43201447,-122.1823654,2014-09-05,33539,2014-09-05 20:36:45 UTC,P,,,,,,,,,US,,,,Public,,public,,,,,,,,,,,,,,,,,,,,,,,,,,,,,,
ELEC,Paso Robles RV Ranch & Campground,398 Exline Rd,,Paso Robles,CA,93446,,805-237-8685,E,,Public,8:30am-5pm daily; pay lot,,,,,1,1,,1 Conductive,,,GPS,35.682304,-120.702174,2014-09-05,33541,2014-09-05 20:37:04 UTC,P,,,,,,,,J1772 NEMA520,US,,,,Public,,public,,,,,,,,,,,,,,,,,,,,,,,,,,,,,,
ELEC,Meadow Park - Donner Historical Society,10115 Donner Trail Rd,,Truckee,CA,96161,,530-582-0893,E,,Public,24 hours daily,,,,,1,1,,1 SP Inductive,,,GPS,39.32732,-120.215,2014-12-30,33543,2014-12-30 22:16:06 UTC,P,,,,,,,,J1772 NEMA520,US,,,,Public,,public,,,PRKLT,,,,,,,,,,,,,,,,,,,,,,,,,,,
ELEC,City of Ukiah - Public Parking Lot,N Oak & W Standley St,,Ukiah,CA,95482,,707-467-5711,E,,Public,24 hours daily,,,,,,1,,1 SP Inductive,,,GPS,39.15,-123.2091,2014-12-30,33544,2014-12-30 22:13:29 UTC,LG,,,,,,,,J1772,US,,,,Public,,public,,,PRKLT,,,,,,,,,,,,,,,,,,,,,,,,,,,
ELEC,Nut Tree Village,1651 E Monte Vista Ave,,Vacaville,CA,95688,,707-449-5424,E,,Public,24 hours daily,,,,,1,1,,1 SP Inductive,,,200-8,38.3687086,-121.9612667,2014-12-30,33545,2014-12-30 22:05:02 UTC,P,,,,,,,,J1772 NEMA515,US,,,,Public,,public,,,SHPCNTR,,,,,,,,,,,,,,,,,,,,,,,,,,,
ELEC,City of West Hollywood - Plummer Park,7377 Santa Monica Blvd,,West Hollywood,CA,90069,,888-998-2546,E,,Public,MON: 24 hours | TUE: 24 hours | WED: 24 hours | THU: 24 hours | FRI: 24 hours | SAT: 24 hours | SUN: 24 hours,,,,,,2,,,Blink Network,https://blinkcharging.com,GPS,34.092549,-118.351258,2014-12-30,33547,2014-12-29 08:13:24 UTC,,,,,,,,,J1772,US,,,,Public,,public,,,,,,,,,,,,,,,,,,,,,,,,,,,,,,
ELEC,California Fuel Cell Partnership,3300 Industrial Blvd,,West Sacramento,CA,95691,,916-371-2870,E,,Public,24 hours daily,,,,,,1,,,,,200-8,38.57424,-121.557443,2014-09-05,33548,2014-09-05 20:24:25 UTC,P,,,,,,,,J1772,US,,,,Public,,public,,,,,,,,,,,,,,,,,,,,,,,,,,,,,,
ELEC,Placer County Community Development Resource Center,3091 County Center Dr,,Auburn,CA,95603,,530-745-3197,E,,Public,24 hours daily,,,,,,1,,,,,GPS,38.9412492,-121.1054805,2014-12-30,33550,2014-12-30 22:13:52 UTC,P,,,,,,,,J1772,US,,,,Public,,public,,,OFCBLD,,,,,,,,,,,,,,,,,,,,,,,,,,,
ELEC,Center Street Garage,2025 Center St,Between Shattuck and Milvia Streets,Berkeley,CA,94704,,510-843-1788,E,,Public,Garage business hours; pay lot,,,,,,1,,1 SP Inductive,,,GPS,37.87012863,-122.2702103,2014-09-05,33551,2014-09-05 20:35:43 UTC,P,,,,,,,,J1772,US,,,,Public,,public,,,,,,,,,,,,,,,,,,,,,,,,,,,,,,
ELEC,Colfax Railroad Depot - Amtrak Station,1 S Railroad Ave,99 Railroad St at Grass Valley St,Colfax,CA,95713,,530-346-2313,E,,Public,24 hours daily,,,,,1,1,,1 SP Inductive,,,GPS,39.099117,-120.9532,2014-09-05,33553,2014-09-05 20:30:10 UTC,P,,,,,,,,J1772 NEMA520,US,,,,Public,,public,,,,,,,,,,,,,,,,,,,,,,,,,,,,,,
ELEC,4th and G Plaza Public Parking Garage,4th St & G St,Entrance on 4th St,Davis,CA,95616,,530-753-7730,E,,Public,24 hours daily,,,,,3,1,,1 SP Inductive,,,GPS,38.54643,-121.7388,2014-12-30,33555,2014-12-30 21:59:54 UTC,P,,,,,,,,J1772 NEMA520,US,,,,Public,,public,,,PRKGRG,,,,,,,,,,,,,,,,,,,,,,,,,,,
ELEC,Davis Amtrak Station,840 2nd St,2nd & H St,Davis,CA,95616,,530-757-5685,E,,Public,24 hours daily,,,,,,2,,1 SP Inductive,,,GPS,38.5443,-121.738,2014-12-04,33556,2014-12-04 15:16:53 UTC,P,,,,,,,,J1772,US,,,,Public,,public,,,PPRKLT,,,,,,,,,,,,,,,,,,,,,,,,,,,
ELEC,UC Davis Parking Garage,6 Howard Way,Between Russell Blvd & North Quad,Davis,CA,95616,,530-752-8277,E,,Public,24 hours daily; pay lot; permit required 7am-10pm M-F,,,,,2,1,,1 SP Inductive,,,200-8,38.544345,-121.75026,2013-12-31,33557,2014-12-19 20:32:55 UTC,P,,,,,,,,J1772 NEMA520,US,,,,Public,,public,,,CLGCMPS,,,,,,,,,,,,,,,,,,,,,,,,,,,
ELEC,University Covenant Church,315 Mace Blvd,,Davis,CA,95616,,530-756-3923,E,,Public,24 hours daily,,,,,,1,,,,,GPS,38.55755,-121.6947,2014-09-05,33558,2014-09-05 19:20:22 UTC,P,,,,,,,,J1772,US,,,,Public,,public,,,,,,,,,,,,,,,,,,,,,,,,,,,,,,
ELEC,Wildhorse Golf Club,2323 Rockwell Dr,,Davis,CA,95618,,530-753-4900,E,,Public,24 hours daily; customer use only,,,,,,2,,,,,200-8,38.573359,-121.719193,2014-09-05,33559,2014-09-05 19:28:01 UTC,P,,,,,,,,J1772,US,,,,Public,,public,,,,,,,,,,,,,,,,,,,,,,,,,,,,,,
ELEC,Ciudad del Rey Motel & Trailer Park,50557 Wild Horse Rd,At US-101,King City,CA,93930,,831-385-4828,E,,Public - Call ahead,Pay lot,,,,,,,,6 Conductive 120V/240V NEMA 14-50,,,GPS,36.188975,-121.075858,2014-12-30,33563,2014-12-30 22:03:26 UTC,P,,,,,,,,,US,,,,Public - Appeler à l'avance,,public,CALL,,HTL,,,,,,,,,,,,,,,,,,,,,,,,,,,
ELEC,Lakewood Center Mall,4500 Silva St,,Lakewood,CA,90712,,562-531-6707,E,,Public,Mall business hours,,,,,,2,,,,,GPS,33.84788,-118.13889,2014-12-30,33564,2014-12-30 22:16:00 UTC,P,,,,,,,,J1772,US,,,,Public,,public,,,SHPGML,,,,,,,,,,,,,,,,,,,,,,,,,,,
ELEC,West Custom House Garage,340 Tyler St,Between Franklin St and Del Monte Ave. Connectors provided for stations to be compatible with all PEVs.,Monterey,CA,93940,,831-646-3953,E,,Public,24 hours daily; 4 hour parking 9am-6pm M-F,,,,,,2,,,,,GPS,36.60003,-121.8936,2014-12-30,33566,2014-12-30 22:17:27 UTC,P,,,,,,,,J1772,US,,,,Public,,public,,,OTH,,,,,,,,,,,,,,,,,,,,,,,,,,,
ELEC,Napa Premium Outlets,629 Factory Stores Drive,,Napa,CA,94558,,800-663-5633,E,,Public - Card key at all times,MO: Not Specified; TU: Not Specified; WE: Not Specified; TH: Not Specified; FR: Not Specified; SA: Not Specified; SU: Not Specified,,,,,,2,,,SemaCharge Network,https://blinkcharging.com,GPS,38.295981,-122.303226,2014-12-30,33568,2014-12-29 08:33:51 UTC,,,,,,,,,J1772,US,,,,Public - Carte-clé en tout temps,,public,KEY_ALWAYS,,,,,,,,,,,,,,,,,,,,,,,,,,,,,
ELEC,City of Santa Monica - Virginia Avenue Park,2200 Virginia Ave,Accessible from Virginia and Pico Ave,Santa Monica,CA,90404,,310-458-8516,E,,Public,6am-11pm daily,,,,,,2,,1 SP Inductive  1 Avcon Inductive,,,200-8,34.0220292,-118.4687695,2014-12-30,33679,2014-12-30 22:03:03 UTC,LG,,,,,,,,J1772,US,,,,Public,,public,,,MUNGOV,,,,,,,,,,,,,,,,,,,,,,,,,,,
ELEC,Fry's Electronics,1077 E Arques Ave,,Sunnyvale,CA,94085,,408-617-1300  408-487-4500,E,,Public,24 hours daily,,,,,,,,1 SP Inductive  1 Avcon Conductive,,,200-8,37.3825602,-122.0007682,2014-12-30,33681,2014-12-30 22:11:45 UTC,P,,,,,,,,,US,,,,Public,,public,,,PRKLT,,,,,,,,,,,,,,,,,,,,,,,,,,,
ELEC,Sunnyvale CalTrain Station,W Evelyn Ave & S Murphy Ave,,Sunnyvale,CA,94086,,800-660-4287,E,,Public,Garage business hours; pay lot,,,,,,1,,1 SP Inductive,,,GPS,37.37793,-122.03,2013-12-31,33682,2014-04-21 18:22:59 UTC,P,,,,,,,,J1772,US,,,,Public,,public,,,TRVCNTR,,,,,,,,,,,,,,,,,,,,,,,,,,,
ELEC,Los Angeles Public Library - Lake View Terrace Branch,12002 Osborne Ave,,Sylmar,CA,91342,,818-890-7404,E,,Public,Library business hours,,,,,,,,1 Avcon Conductive,,,200-8,34.272812,-118.394014,2012-12-25,33683,2014-01-20 18:08:08 UTC,LG,,,,,,,,,US,,,,Public,,public,,,PRKLT,,,,,,,,,,,,,,,,,,,,,,,,,,,
ELEC,SMUD Customer Service Center - Customer Parking Lot,6301 S St,,Sacramento,CA,95817,,916-452-3211,E,,Public,24 hours daily,,,,,,1,,1 SP Inductive,,,200-8,38.5518426,-121.4291905,2014-12-30,33685,2014-12-30 22:13:54 UTC,T,,,,,,,,J1772,US,,,,Public,,public,,,PRKLT,,,,,,,,,,,,,,,,,,,,,,,,,,,
ELEC,Golden Gate Ferry Terminal,101 E Sir Francis Drake Blvd,,Larkspur,CA,94939,,415-925-5571,E,,Public,24 hours daily; pay lot,,,,,,1,,1 SP Inductive,,,GPS,37.94495,-122.5096,2014-12-30,33690,2014-12-30 22:15:16 UTC,P,,,,,,,,J1772,US,,,,Public,,public,,,PRKLT,,,,,,,,,,,,,,,,,,,,,,,,,,,
ELEC,The Presentation Center,19480 Bear Creek Rd,,Los Gatos,CA,95033,,408 354-2346,E,,Public - Call ahead,8am-4:30pm M-F,,,,,2,1,,1 SP Inductive,,,GPS,37.17488,-122.009,2014-12-30,33691,2014-12-30 22:01:14 UTC,P,,,,,,,,J1772 NEMA515,US,,,,Public - Appeler à l'avance,,public,CALL,,PRK,,,,,,,,,,,,,,,,,,,,,,,,,,,
ELEC,Facebook - Building 17,1601 Willow Rd,,Menlo Park,CA,94025,,888-758-4389,E,,Public,24 hours daily,,,,,22,1,,,,,200-8,37.48325,-122.15,2014-09-05,33692,2014-09-05 19:38:53 UTC,P,,,,,,,,J1772 NEMA520,US,,,,Public,,public,,,,,,,,,,,,,,,,,,,,,,,,,,,,,,
ELEC,Jack London Square,466 Water St,Embarcadero West & Broadway,Oakland,CA,94607,,510-645-9292,E,,Public,Garage business hours; pay lot,,,,,,1,,,,,GPS,37.795336,-122.2769,2014-11-04,33694,2014-11-04 21:38:26 UTC,P,,,,,,,,J1772,US,,,,Public,,public,,,PRKGRG,,,,,,,,,,,,,,,,,,,,,,,,,,,
ELEC,Oakland Airport - Daily B Lot,1 Airport Way,,Oakland,CA,94621,,510-563-3300,E,,Public,24 hours daily; pay lot,,,,,,2,,,,,200-8,37.7294959,-122.2001954,2014-12-30,33695,2014-12-30 22:16:33 UTC,P,,,,,,,,J1772,US,,,,Public,,public,,,ARPRT,,,,,,,,,,,,,,,,,,,,,,,,,,,
ELEC,CCSF-SFMTA,733 Kearny St,,San Francisco,CA,94108,,888-758-4389,E,,Public,24 hours daily,,,,,,4,,,ChargePoint Network,https://www.chargepoint.com,200-8,37.7949439,-122.4052039,2014-12-30,33700,2014-12-30 09:17:07 UTC,,,,,,,,,J1772,US,,,,Public,,public,,,,,,,,,,,,,,,,,,,,,,,,,,,,,,
ELEC,Reid-Hillview Airport,2500 Cunningham Ave,,San Jose,CA,95148,,408-918-7700,E,,Public,24 hours daily,,,,,2,2,,1 Avcon Conductive  1 Conductive 120V/240V NEMA 14-50,,,200-8,37.3359851,-121.8197694,2014-12-30,33704,2014-12-30 21:59:30 UTC,P,,,,,,,,J1772 NEMA520,US,,,,Public,,public,,,ARPRT,,,,,,,,,,,,,,,,,,,,,,,,,,,
ELEC,City of Santa Monica - Montana Avenue,1101 Montana Ave,Curbside,Santa Monica,CA,90403,,310-458-8516,E,,Public,24 hours daily,,,,,,1,,1 SP Inductive,,,200-8,34.030347,-118.498017,2014-12-30,33706,2014-12-30 22:14:01 UTC,LG,,,,,,,,J1772,US,,,,Public,,public,,,MUNGOV,,,,,,,,,,,,,,,,,,,,,,,,,,,
ELEC,SAN JOSE,200 E Santa Clara St,,San Jose,CA,95113,,888-758-4389,E,,Public,24 hours daily,,,,,2,2,,,ChargePoint Network,https://www.chargepoint.com,200-8,37.3381439,-121.8854494,2014-12-30,33718,2014-12-30 08:40:55 UTC,,,,,,,,,J1772 NEMA520,US,,,,Public,,public,,,,,,,,,,,,,,,,,,,,,,,,,,,,,,
ELEC,CHARGEPOINT,1692 Dell Ave,,Campbell,CA,95008,,888-758-4389,E,,Public,24 hours daily,,,,,,7,,,ChargePoint Network,https://www.chargepoint.com,200-8,37.2616172,-121.9571723,2014-12-30,35141,2014-12-30 08:41:08 UTC,,,,,,,,,J1772,US,,,,Public,,public,,,,,,,,,,,,,,,,,,,,,,,,,,,,,,
ELEC,SIERRA NEVADA,1075 E 20th St,,Chico,CA,95928,,888-758-4389,E,,Public,24 hours daily,,,,,1,1,,,ChargePoint Network,https://www.chargepoint.com,GPS,39.7242546,-121.8138504,2014-12-30,35143,2014-12-30 08:52:28 UTC,,,,,,,,,J1772 NEMA520,US,,,,Public,,public,,,,,,,,,,,,,,,,,,,,,,,,,,,,,,
ELEC,DMC Green - Elk Grove,8999 Elk Grove Blvd,,Elk Grove,CA,95624,,888-758-4389,E,,Public,24 hours daily,,,,,,1,,,,,200-8,38.409248,-121.367404,2014-09-05,35145,2014-09-05 19:22:15 UTC,P,,,,,,,,J1772,US,,,,Public,,public,,,,,,,,,,,,,,,,,,,,,,,,,,,,,,
ELEC,Fairfield Transportation Center,2000 Cadenasso Dr,,Fairfield,CA,94533,,707-449-5424,E,,Public,24 hours daily,,,,,,,,2 Tesla Conductive,,,200-8,38.248456,-122.068439,2013-08-25,35146,2014-11-11 22:52:36 UTC,P,,,,,,,,,US,,,,Public,,public,,,TRVCNTR,,,,,,,,,,,,,,,,,,,,,,,,,,,
ELEC,San Francisco City Hall,1 Dr Carlton B Goodlet Pl,dep of environment - 415-355-3700 ,San Francisco,CA,94102,,,E,,Private,City vehicle use only,,,,,1,1,,,,,GPS,37.77913,-122.418,2014-12-30,35149,2014-12-30 22:16:17 UTC,LG,,,,,,,,J1772 NEMA520,US,,,,Privé,,private,,,MUNGOV,,,,,,,,,,,,,,,,,,,,,,,,,,,
ELEC,Sonoma County,2688 Ventura Ave,,Santa Rosa,CA,95403,,,E,,Private,,,,,,8,8,,,ChargePoint Network,https://www.chargepoint.com,GPS,38.46649551,-122.7237396,2013-11-30,35150,2014-04-21 18:23:01 UTC,LG,,,,,,,,J1772 NEMA520,US,,,,Privé,,private,,,MUNGOV,,,,,,,,,,,,,,,,,,,,,,,,,,,
ELEC,COUNTY SONOMA,575 Administration Dr,,Santa Rosa,CA,95403,,888-758-4389,E,,Public,24 hours daily,,,,,2,2,,,ChargePoint Network,https://www.chargepoint.com,200-8,38.4647144,-122.7256102,2014-12-30,35151,2014-12-30 08:52:33 UTC,,,,,,,,,J1772 NEMA520,US,,,,Public,,public,,,,,,,,,,,,,,,,,,,,,,,,,,,,,,
ELEC,WALNUT CREEK,1625 Locust St,,Walnut Creek,CA,94596,,888-758-4389,E,,Public,24 hours daily,,,,,1,1,,,ChargePoint Network,https://www.chargepoint.com,GPS,37.900959,-122.0626373,2014-12-30,35154,2014-12-30 08:52:29 UTC,,,,,,,,,J1772 NEMA520,US,,,,Public,,public,,,,,,,,,,,,,,,,,,,,,,,,,,,,,,
ELEC,WALNUT CREEK,1390 N Broadway,,Walnut Creek,CA,94596,,888-758-4389,E,,Public,24 hours daily,,,,,1,1,,,ChargePoint Network,https://www.chargepoint.com,GPS,37.8991165,-122.0591736,2014-12-30,35155,2014-12-30 08:52:29 UTC,,,,,,,,,J1772 NEMA520,US,,,,Public,,public,,,,,,,,,,,,,,,,,,,,,,,,,,,,,,
ELEC,WALNUT CREEK,1350 Locust St,,Walnut Creek,CA,94596,,888-758-4389,E,,Public,24 hours daily,,,,,1,1,,,ChargePoint Network,https://www.chargepoint.com,GPS,37.8981934,-122.0609665,2014-12-30,35156,2014-12-30 08:52:29 UTC,,,,,,,,,J1772 NEMA520,US,,,,Public,,public,,,,,,,,,,,,,,,,,,,,,,,,,,,,,,
ELEC,Cureton Elementary School,3720 E Hills Dr,,San Jose,CA,95127,,888-758-4389,E,,Public,24 hours daily,,,,,1,,,,ChargePoint Network,https://www.chargepoint.com,GPS,37.36816406,-121.8160172,2013-08-31,35279,,LG,,,,,,,,,US,,,,Public,,public,,,,,,,,,,,,,,,,,,,,,,,,,,,,,,
ELEC,Sonoma County,400-498 Fiscal Dr,,Santa Rosa,CA,95403,,,E,,Private,Fleet use only,,,,,1,1,,,ChargePoint Network,https://www.chargepoint.com,GPS,38.46478653,-122.7234344,2013-11-30,35280,2014-04-21 18:23:02 UTC,LG,,,,,,,,J1772 NEMA520,US,,,,Privé,,private,,,MUNGOV,,,,,,,,,,,,,,,,,,,,,,,,,,,
ELEC,Rabobank - Atascadero,6950 El Camino Real,,Atascadero,CA,93422,,805-466-2325,E,,Public,24 hours daily,,,,,,8,,,,,200-8,35.4863954,-120.6655842,2014-12-30,35468,2014-12-30 22:02:00 UTC,P,,,,,,,,J1772,US,,,,Public,,public,,,BNK,,,,,,,,,,,,,,,,,,,,,,,,,,,
ELEC,City of Pleasant Hill - Private Access,310 Civic Dr,,Pleasant Hill,CA,94523,,,E,,Private,,,,,,1,1,,,ChargePoint Network,https://www.chargepoint.com,GPS,37.9627,-122.067,2013-01-31,35469,,LG,,,,,,,,,US,,,,Privé,,private,,,,,,,,,,,,,,,,,,,,,,,,,,,,,,
ELEC,Rabobank - Salinas,1285 N Davis Rd,,Salinas,CA,93907,,831-784-7700,E,,Public,24 hours daily,,,,,,1,,,,,GPS,36.70104,-121.6673,2014-09-05,35470,2014-09-05 20:32:09 UTC,P,,,,,,,,J1772,US,,,,Public,,public,,,,,,,,,,,,,,,,,,,,,,,,,,,,,,
ELEC,Home Depot,1551 Froom Ranch Way,,San Luis Obispo,CA,93405,,805-596-0857,E,,Public,24 hours daily,,,,,,2,,,,,200-8,35.250422,-120.689154,2014-09-05,35560,2014-09-05 19:20:14 UTC,P,,,,,,,,J1772,US,,,,Public,,public,,,,,,,,,,,,,,,,,,,,,,,,,,,,,,
ELEC,San Luis Obispo Promenade - Bed Bath & Beyond,319 Madonna Rd,,San Luis Obispo,CA,93401,,805-545-7556,E,,Public,24 hours daily,,,,,,4,,,,,GPS,35.25982,-120.676,2014-12-30,35561,2014-12-30 22:09:38 UTC,P,,,,,,,,J1772,US,,,,Public,,public,,,SHPCNTR,,,,,,,,,,,,,,,,,,,,,,,,,,,
ELEC,Woodland Gateway Shopping Center,County Rd 102 & Maxwell Ave,Off I-5 near Sacramento,Woodland,CA,95776,,916-442-4600,E,,Public,24 hours daily,,,,,3,2,,1 SP Inductive  1 Tesla Conductive,,,GPS,38.668736,-121.7287,2014-12-30,35839,2014-12-30 22:16:30 UTC,P,,,,,,,,J1772 NEMA520,US,,,,Public,,public,,,SHPCNTR,,,,,,,,,,,,,,,,,,,,,,,,,,,
ELEC,Rabobank - Santa Maria,1554 S Broadway St,,Santa Maria,CA,93454,,805-922-6951,E,,Public,24 hours daily,,,,,,1,,,,,200-8,34.9321,-120.435367,2014-09-05,35994,2014-09-05 20:33:29 UTC,P,,,,,,,,J1772,US,,,,Public,,public,,,,,,,,,,,,,,,,,,,,,,,,,,,,,,
ELEC,Hilton San Francisco Financial District,750 Kearny St,At Washington Street,San Francisco,CA,94115,,415-433-6600,E,,Public - Call ahead,24 hours daily,,,,,,1,,,,,200-8,37.7952854,-122.4043362,2014-12-30,36236,2014-12-30 22:02:02 UTC,P,,,,,,,,J1772,US,,,,Public - Appeler à l'avance,,public,CALL,,HTL,,,,,,,,,,,,,,,,,,,,,,,,,,,
ELEC,CITY OF ANAHEIM,201 S. Anaheim Blvd,,Anaheim,CA,92805,,888-758-4389,E,,Public,24 hours daily,,,,,1,2,,,ChargePoint Network,https://www.chargepoint.com,200-8,33.8346211,-117.9139693,2014-12-30,36344,2014-12-30 08:53:38 UTC,,,,,,,,,J1772 NEMA520,US,,,,Public,,public,,,,,,,,,,,,,,,,,,,,,,,,,,,,,,
ELEC,SOUTHCOASTPLAZA,3333 Bear St,,Costa Mesa,CA,92626,,888-758-4389,E,,Public,24 hours daily,,,,,1,1,,,ChargePoint Network,https://www.chargepoint.com,GPS,33.6916542,-117.8927841,2014-12-30,36345,2014-12-30 08:53:58 UTC,,,,,,,,,J1772 NEMA520,US,,,,Public,,public,,,,,,,,,,,,,,,,,,,,,,,,,,,,,,
ELEC,Netflix,100 Winchester Cir,"Building A, P2 Level",Los Gatos,CA,95032,,,E,,Private,,,,,,1,,,,ChargePoint Network,https://www.chargepoint.com,GPS,37.259354,-121.963,2013-11-30,36346,2014-04-21 18:23:04 UTC,P,,,,,,,,NEMA520,US,,,,Privé,,private,,,OFCBLD,,,,,,,,,,,,,,,,,,,,,,,,,,,
ELEC,MARTINEZ CA,680 Court St,,Martinez,CA,94553,,888-758-4389,E,,Public,24 hours daily,,,,,1,1,,,ChargePoint Network,https://www.chargepoint.com,GPS,38.0184746,-122.1345444,2014-12-30,36347,2014-12-30 08:42:30 UTC,,,,,,,,,J1772 NEMA520,US,,,,Public,,public,,,,,,,,,,,,,,,,,,,,,,,,,,,,,,
ELEC,COUNTY SONOMA,2300 County Center Drive,,Santa Rosa,CA,95403,,888-758-4389,E,,Public,24 hours daily,,,,,3,3,,,ChargePoint Network,https://www.chargepoint.com,200-8,38.4620056,-122.7253838,2014-12-30,36350,2014-12-30 08:52:31 UTC,,,,,,,,,J1772 NEMA520,US,,,,Public,,public,,,,,,,,,,,,,,,,,,,,,,,,,,,,,,
ELEC,GREENPARK,1901 L St,,Sacramento,CA,95811,,888-758-4389,E,,Public,24 hours daily,,,,,1,1,,,ChargePoint Network,https://www.chargepoint.com,GPS,38.5750084,-121.4818878,2014-12-30,36505,2014-12-30 08:54:31 UTC,,,,,,,,,J1772 NEMA520,US,,,,Public,,public,,,,,,,,,,,,,,,,,,,,,,,,,,,,,,
ELEC,Rabobank - Goleta,5956 Calle Real,,Goleta,CA,93117,,805-967-0451,E,,Public,24 hours daily,,,,,,1,,,,,200-8,34.4419061,-119.8295935,2014-12-30,36610,2014-12-30 22:01:14 UTC,P,,,,,,,,J1772,US,,,,Public,,public,,,BNK,,,,,,,,,,,,,,,,,,,,,,,,,,,
ELEC,CHARGEPOINT,1686 Dell Ave,,Campbell,CA,95008,,888-758-4389,E,,Public,24 hours daily,,,,,,12,,,ChargePoint Network,https://www.chargepoint.com,200-8,37.2611942,-121.9577924,2014-12-30,37183,2014-12-30 09:17:12 UTC,,,,,,,,,J1772,US,,,,Public,,public,,,,,,,,,,,,,,,,,,,,,,,,,,,,,,
ELEC,FENWICK & WEST,801 California St,,Mountain View,CA,94041,,888-758-4389,E,,Public,24 hours daily,,,,,2,4,,,ChargePoint Network,https://www.chargepoint.com,200-8,37.3912472,-122.0811988,2014-12-30,37185,2014-12-30 08:49:28 UTC,,,,,,,,,J1772 NEMA520,US,,,,Public,,public,,,,,,,,,,,,,,,,,,,,,,,,,,,,,,
ELEC,SAN JOSE,128-268 California 82,,San Jose,CA,95113,,888-758-4389,E,,Public,24 hours daily,,,,,3,3,,,ChargePoint Network,https://www.chargepoint.com,200-9,37.3306416,-121.8873012,2014-12-30,37187,2014-12-30 08:40:48 UTC,,,,,,,,,J1772 NEMA520,US,,,,Public,,public,,,,,,,,,,,,,,,,,,,,,,,,,,,,,,
ELEC,Solar Living Institute,13771 S Highway 101,,Hopland,CA,95449,,707-472-2450,E,,Public,10am-6pm daily,,,,,2,,,2 Other Conductive,,,GPS,38.966725,-123.114542,2014-09-05,37264,2014-09-05 20:33:20 UTC,P,,,,,,,,NEMA515,US,,,,Public,,public,,,,,,,,,,,,,,,,,,,,,,,,,,,,,,
ELEC,CREEKSIDE INN,3400 California 82,,Palo Alto,CA,94306,,888-758-4389,E,,Public,24 hours daily,,,,,2,2,,,ChargePoint Network,https://www.chargepoint.com,200-8,37.4290442,-122.1422876,2014-12-30,38181,2014-12-30 08:56:00 UTC,,,,,,,,,J1772 NEMA520,US,,,,Public,,public,,,,,,,,,,,,,,,,,,,,,,,,,,,,,,
ELEC,Mineta San Jose International Airport - Terminal A,2077 Airport Blvd,Hourly Lot 2,San Jose,CA,95110,,408-392-3600,E,,Public,24 hours daily; pay lot,Cash,,,,1,1,,1 TAL 2000 SP Inductive,,,GPS,37.36395,-121.9238,2014-12-30,38255,2014-12-30 22:17:08 UTC,LG,,,,,,,,J1772 NEMA520,US,,,,Public,,public,,,ARPRT,,,,,,,,,,,,,,,,,,,,,,,,,,,
ELEC,ClipperCreek Headquarters,11850 Kemper Rd,Kemper Rd and Highway 49,Auburn,CA,95603,,530-887-1674,E,,Public,24 hours daily,,,,,,2,,1 Tesla Conductive,,,200-8,38.930796,-121.092196,2014-12-04,38314,2014-12-04 15:16:50 UTC,P,,,,,,,,J1772,US,,,,Public,,public,,,OFCBLD,,,,,,,,,,,,,,,,,,,,,,,,,,,
ELEC,Toyota of Santa Monica,801 Santa Monica Blvd,At Lincoln Ct,Santa Monica,CA,90401,,,E,,Private,Customer use only,,,,,,3,,,,,200-8,34.0199168,-118.4913164,2014-12-30,38379,2014-12-30 22:12:44 UTC,P,,,,,,,,J1772,US,,,,Privé,,private,,,CRDLR,,,,,,,,,,,,,,,,,,,,,,,,,,,
ELEC,Toyota of Hollywood,6000 Hollywood Blvd,At N Gower St,Hollywood,CA,90028,,,E,,Private,Customer use only,,,,,,1,,,,,200-8,34.1014581,-118.3218375,2014-12-30,38380,2014-12-30 22:17:28 UTC,P,,,,,,,,J1772,US,,,,Privé,,private,,,CRDLR,,,,,,,,,,,,,,,,,,,,,,,,,,,
ELEC,City of Santa Monica - Civic Auditorium Solar Port,1855 Main St,,Santa Monica,CA,90401,,310-458-8516,E,,Public,8am-1am daily; pay lot,,,,,,3,,,,,200-8,34.0089789,-118.4896573,2014-12-30,38515,2014-12-30 22:14:02 UTC,LG,,,,,,,,J1772,US,,,,Public,,public,,,MUNGOV,,,,,,,,,,,,,,,,,,,,,,,,,,,
ELEC,Beach & Hyde Garage,655 Beach St,,San Francisco,CA,94109,,415-981-9435,E,,Public,24 hours daily; pay lot,,,,,1,2,,,,,200-8,37.8065991,-122.4202209,2014-12-30,38518,2014-12-30 22:13:03 UTC,P,,,,,,,,J1772 NEMA515,US,,,,Public,,public,,,PPRKGRG,,,,,,,,,,,,,,,,,,,,,,,,,,,
ELEC,Levi Plaza Garage,101 Lombard St,Located in the Lombard Street Parking Garage,San Francisco,CA,94111,,877-850-4562,E,,Public,24 hours daily; pay lot,,,,,1,1,,,,,GPS,37.80383301,-122.404,2014-12-30,38519,2014-12-30 22:17:30 UTC,P,,,,,,,,J1772 NEMA515,US,,,,Public,,public,,,PPRKGRG,,,,,,,,,,,,,,,,,,,,,,,,,,,
ELEC,City of Santa Monica - Civic Parking Garage,333 Civic Center Dr,1st floor of parking garage,Santa Monica,CA,90401,,310-458-8516,E,,Public,24 hours daily; pay lot,,,,,,7,,,,,GPS,34.010528,-118.4898,2014-12-30,38521,2014-12-30 22:14:01 UTC,LG,,,,,,,,J1772,US,,,,Public,,public,,,MUNGOV,,,,,,,,,,,,,,,,,,,,,,,,,,,
ELEC,BROADWAY MGT,1516 Oak St,,Alameda,CA,94501,,888-758-4389,E,,Public,24 hours daily,,,,,1,1,,,ChargePoint Network,https://www.chargepoint.com,GPS,37.7665863,-122.2427979,2014-12-30,38897,2014-12-30 08:51:20 UTC,,,,,,,,,J1772 NEMA520,US,,,,Public,,public,,,,,,,,,,,,,,,,,,,,,,,,,,,,,,
ELEC,Volkswagen Group of America - Electronics Research Laboratory ,500 Clipper Dr,,Belmont,CA,94002,,888-758-4389,E,,Public - Card key at all times,24 hours daily; network card required,,,,,,,2,,Blink Network,https://blinkcharging.com,GPS,37.53367996,-122.2725,2013-11-25,38900,2014-01-20 18:05:20 UTC,P,,,,,,,,,US,,,,Public - Carte-clé en tout temps,,public,KEY_ALWAYS,,,,,,,,,,,,,,,,,,,,,,,,,,,,,
ELEC,SOUTHCOASTPLAZA,3333 S Coast Dr,,Costa Mesa,CA,92626,,888-758-4389,E,,Public,24 hours daily,,,,,1,3,,,ChargePoint Network,https://www.chargepoint.com,200-8,33.69067,-117.887952,2014-12-30,38901,2014-12-30 08:53:59 UTC,,,,,,,,,J1772 NEMA520,US,,,,Public,,public,,,,,,,,,,,,,,,,,,,,,,,,,,,,,,
ELEC,PARK TOWER,3401-3447 Park Center Dr,,Costa Mesa,CA,92626,,888-758-4389,E,,Public,24 hours daily,,,,,1,2,,,ChargePoint Network,https://www.chargepoint.com,200-8,33.6932675,-117.8835254,2014-12-30,38902,2014-12-30 08:41:57 UTC,,,,,,,,,J1772 NEMA520,US,,,,Public,,public,,,,,,,,,,,,,,,,,,,,,,,,,,,,,,
ELEC,PLAZA TOWER,600 Anton Blvd,,Costa Mesa,CA,92626,,888-758-4389,E,,Public,24 hours daily,,,,,1,6,,,ChargePoint Network,https://www.chargepoint.com,200-8,33.6907703,-117.8814037,2014-12-30,38904,2014-12-30 08:41:54 UTC,,,,,,,,,J1772 NEMA520,US,,,,Public,,public,,,,,,,,,,,,,,,,,,,,,,,,,,,,,,
ELEC,CAISO,250 Outcropping Way,,Folsom,CA,95630,,888-758-4389,E,,Public,24 hours daily,,,,,,4,,,ChargePoint Network,https://www.chargepoint.com,200-8,38.6435345,-121.1484639,2014-12-30,38905,2014-12-30 08:44:36 UTC,,,,,,,,,J1772,US,,,,Public,,public,,,,,,,,,,,,,,,,,,,,,,,,,,,,,,
ELEC,CSU FULLERTON,1300 N State College Blvd,,Fullerton,CA,92831,,888-758-4389,E,,Public,24 hours daily,,,,,2,2,,,ChargePoint Network,https://www.chargepoint.com,200-8,33.88449,-117.8896632,2014-12-30,38906,2014-12-30 08:55:39 UTC,,,,,,,,,J1772 NEMA520,US,,,,Public,,public,,,,,,,,,,,,,,,,,,,,,,,,,,,,,,
ELEC,LOS ALTOS HILLS,26379 W Fremont Rd,,Los Altos Hills,CA,94022,,888-758-4389,E,,Public,24 hours daily,,,,,1,1,,,ChargePoint Network,https://www.chargepoint.com,GPS,37.3832817,-122.138382,2014-12-30,38907,2014-12-30 08:44:43 UTC,,,,,,,,,J1772 NEMA520,US,,,,Public,,public,,,,,,,,,,,,,,,,,,,,,,,,,,,,,,
ELEC,LOS ALTOS HILLS,27500-27606 Purissima Rd,,Los Altos Hills,CA,94022,,888-758-4389,E,,Public,24 hours daily,,,,,1,1,,,ChargePoint Network,https://www.chargepoint.com,GPS,37.377491,-122.1471863,2014-12-30,38908,2014-12-30 08:44:44 UTC,,,,,,,,,J1772 NEMA520,US,,,,Public,,public,,,,,,,,,,,,,,,,,,,,,,,,,,,,,,
ELEC,WATT PLAZA,1875 Century Park E,,Los Angeles,CA,90067,,888-758-4389,E,,Public,24 hours daily,,,,,1,4,,,ChargePoint Network,https://www.chargepoint.com,200-8,34.0609111,-118.4147379,2014-12-30,38909,2014-12-30 08:44:37 UTC,,,,,,,,,J1772 NEMA520,US,,,,Public,,public,,,,,,,,,,,,,,,,,,,,,,,,,,,,,,
ELEC,CAL STATE LA,5151 State University Dr,,Los Angeles,CA,90032,,888-758-4389,E,,Public,24 hours daily,,,,,,30,,,ChargePoint Network,https://www.chargepoint.com,200-9,34.0621924,-118.1736142,2014-12-30,38910,2014-12-30 09:17:14 UTC,,,,,,,,,J1772,US,,,,Public,,public,,,,,,,,,,,,,,,,,,,,,,,,,,,,,,
ELEC,Courtesy Charge,742 Seward St,,Los Angeles,CA,90038,,,E,,Private,,,,,,,1,,,Blink Network,https://blinkcharging.com,GPS,34.08471298,-118.3331,2012-12-31,38911,2014-01-20 19:04:08 UTC,P,,,,,,,,J1772,US,,,,Privé,,private,,,PRKLT,,,,,,,,,,,,,,,,,,,,,,,,,,,
ELEC,NCTPA,3416 Solano Ave,,Napa,CA,94558,,888-758-4389,E,,Public,24 hours daily,,,,,1,1,,,ChargePoint Network,https://www.chargepoint.com,GPS,38.3213348,-122.3102722,2014-12-30,38917,2014-12-30 08:55:48 UTC,,,,,,,,,J1772 NEMA520,US,,,,Public,,public,,,,,,,,,,,,,,,,,,,,,,,,,,,,,,
ELEC,FASHION ISLAND,1101 Newport Center Dr,,Newport Beach,CA,92660,,888-758-4389,E,,Public,24 hours daily,,,,,2,2,,,ChargePoint Network,https://www.chargepoint.com,200-8,33.6153956,-117.8765964,2014-12-30,38918,2014-12-30 08:47:21 UTC,,,,,,,,,J1772 NEMA520,US,,,,Public,,public,,,,,,,,,,,,,,,,,,,,,,,,,,,,,,
ELEC,SAP Labs,3410 Hillview Ave,,Palo Alto,CA,94304,,,E,,Private,Employee use only,,,,,2,4,,,,,GPS,37.3988,-122.146,2014-12-30,38919,2014-12-30 22:17:11 UTC,P,,,,,,,,J1772 NEMA520,US,,,,Privé,,private,,,OFCBLD,,,,,,,,,,,,,,,,,,,,,,,,,,,
ELEC,WELCOME TO PCC,1570 Colorado Blvd,,Pasadena,CA,91106,,888-758-4389,E,,Public,24 hours daily,,,,,1,1,,,ChargePoint Network,https://www.chargepoint.com,GPS,34.1451874,-118.1210632,2014-12-30,38920,2014-12-30 08:51:30 UTC,,,,,,,,,J1772 NEMA520,US,,,,Public,,public,,,,,,,,,,,,,,,,,,,,,,,,,,,,,,
ELEC,Pasadena City College - Lot 1 West,1570 Colorado Blvd,,Pasadena,CA,91106,,888-758-4389,E,,Public,24 hours daily,,,,,1,1,,,ChargePoint Network,https://www.chargepoint.com,GPS,34.14518738,-118.1210632,2013-08-31,38921,,P,,,,,,,,,US,,,,Public,,public,,,,,,,,,,,,,,,,,,,,,,,,,,,,,,
ELEC,WELCOME TO PCC,1570 East Colorado Blvd,,Pasadena,CA,91106,,888-758-4389,E,,Public,24 hours daily,,,,,2,2,,,ChargePoint Network,https://www.chargepoint.com,200-9,34.1431331,-118.1203441,2014-12-30,38922,2014-12-30 08:51:29 UTC,,,,,,,,,J1772 NEMA520,US,,,,Public,,public,,,,,,,,,,,,,,,,,,,,,,,,,,,,,,
ELEC,Pasadena City College - Lot 5 West,1570 E Colorado Blvd,,Pasadena,CA,91106,,888-758-4389,E,,Public,24 hours daily,,,,,1,1,,,ChargePoint Network,https://www.chargepoint.com,GPS,34.14369583,-118.1166458,2013-08-31,38923,,P,,,,,,,,,US,,,,Public,,public,,,,,,,,,,,,,,,,,,,,,,,,,,,,,,
ELEC,CITYOFPITTSBURG,515 Railroad Ave,,Pittsburg,CA,94565,,888-758-4389,E,,Public,24 hours daily,,,,,1,1,,,ChargePoint Network,https://www.chargepoint.com,GPS,38.0314217,-121.8837891,2014-12-30,38924,2014-12-30 08:52:26 UTC,,,,,,,,,J1772 NEMA520,US,,,,Public,,public,,,,,,,,,,,,,,,,,,,,,,,,,,,,,,
ELEC,CITYOFPITTSBURG,65 Civic Ave,,Pittsburg,CA,94565,,888-758-4389,E,,Public,24 hours daily,,,,,2,2,,,ChargePoint Network,https://www.chargepoint.com,200-8,38.0199932,-121.8915038,2014-12-30,38925,2014-12-30 08:56:08 UTC,,,,,,,,,J1772 NEMA520,US,,,,Public,,public,,,,,,,,,,,,,,,,,,,,,,,,,,,,,,
ELEC,OAK INT AIRPORT,1Airport Drive,,Oakland,CA,94621,,888-758-4389,E,,Public,24 hours daily,,,,,8,8,,,ChargePoint Network,https://www.chargepoint.com,200-8,37.7115993,-122.2121335,2014-12-30,38926,2014-12-30 08:55:55 UTC,,,,,,,,,J1772 NEMA520,US,,,,Public,,public,,,,,,,,,,,,,,,,,,,,,,,,,,,,,,
ELEC,CUSHMANWAKFIELD,1 Montgomery St,,San Francisco,CA,94104,,888-758-4389,E,,Public,24 hours daily,,,,,2,2,,,ChargePoint Network,https://www.chargepoint.com,200-8,37.7892598,-122.4022427,2014-12-30,38927,2014-12-30 08:55:31 UTC,,,,,,,,,J1772 NEMA520,US,,,,Public,,public,,,,,,,,,,,,,,,,,,,,,,,,,,,,,,
ELEC,PAT'S GARAGE,1090 26th St,,San Francisco,CA,94107,,888-758-4389,E,,Public,24 hours daily,,,,,1,1,,,ChargePoint Network,https://www.chargepoint.com,GPS,37.7515068,-122.3904114,2014-12-30,38928,2014-12-30 08:47:16 UTC,,,,,,,,,J1772 NEMA520,US,,,,Public,,public,,,,,,,,,,,,,,,,,,,,,,,,,,,,,,
ELEC,Adobe - Employee Charging,321 Park Ave,,San Jose,CA,95113,,,E,,Private,Employee use only,,,,,6,12,,,ChargePoint Network,https://www.chargepoint.com,GPS,37.33059692,-121.894,2013-08-31,38930,,P,,,,,,,,,US,,,,Privé,,private,,,,,,,,,,,,,,,,,,,,,,,,,,,,,,
ELEC,ADOBE-SAN JOSE,321 Park Ave,,San Jose,CA,95113,,888-758-4389,E,,Public,24 hours daily,,,,,14,26,,,ChargePoint Network,https://www.chargepoint.com,200-8,37.3308497,-121.8933653,2014-12-30,38931,2014-12-30 09:17:14 UTC,,,,,,,,,J1772 NEMA520,US,,,,Public,,public,,,,,,,,,,,,,,,,,,,,,,,,,,,,,,
ELEC,Agilent,200 La Herran Dr,,Santa Clara,CA,95051,,,E,,Private,,,,,,1,1,,,,,GPS,37.32678986,-122.0004196,2014-12-30,38933,2014-12-30 22:11:29 UTC,P,,,,,,,,J1772 NEMA520,US,,,,Privé,,private,,,OFCBLD,,,,,,,,,,,,,,,,,,,,,,,,,,,
ELEC,ECOLOGY ACTION,877 Cedar Street,,Santa Cruz,CA,95060,,888-758-4389,E,,Public,24 hours daily,,,,,3,3,,,ChargePoint Network,https://www.chargepoint.com,200-8,36.973945,-122.0277,2014-12-30,38934,2014-12-30 08:44:28 UTC,,,,,,,,,J1772 NEMA520,US,,,,Public,,public,,,,,,,,,,,,,,,,,,,,,,,,,,,,,,
ELEC,SANTA MONICA,328 Santa Monica Pl,,Santa Monica,CA,90401,,888-758-4389,E,,Public,24 hours daily,,,,,2,2,,,ChargePoint Network,https://www.chargepoint.com,200-8,34.0160161,-118.4953392,2014-12-30,38935,2014-12-30 08:53:35 UTC,,,,,,,,,J1772 NEMA520,US,,,,Public,,public,,,,,,,,,,,,,,,,,,,,,,,,,,,,,,
ELEC,CITY OF SSF,329 Miller Ave,,South San Francisco,CA,94080,,888-758-4389,E,,Public,24 hours daily,,,,,4,4,,,ChargePoint Network,https://www.chargepoint.com,200-8,37.656184,-122.411215,2014-12-30,38940,2014-12-30 08:56:06 UTC,,,,,,,,,J1772 NEMA520,US,,,,Public,,public,,,,,,,,,,,,,,,,,,,,,,,,,,,,,,
ELEC,CITY OF REDWOOD,750 Marshall St,,Redwood City,CA,94063,,888-758-4389,E,,Public,24 hours daily,,,,,2,2,1,,ChargePoint Network,https://www.chargepoint.com,200-8,37.4875504,-122.2272435,2014-12-30,39232,2014-12-30 08:56:27 UTC,,,,,,,,,CHADEMO J1772 NEMA520,US,,,,Public,,public,,,,,,,,,,,,,,,,,,,,,,,,,,,,,,
ELEC,Super 8 Ukiah,693 S Orchard Ave,"Highway 101, Gobbi Street exit",Ukiah,CA,95482,,707-468-8181,E,,Public - Call ahead,24 hours daily; free for hotel guests. Guests may request use of the EVSE when making hotel reservations,A Cash D M V,,,,,1,,,,,GPS,39.1458,-123.198497,2012-07-31,39314,2014-01-20 19:14:06 UTC,P,,,,,,,,J1772,US,,,,Public - Appeler à l'avance,,public,CALL,,HTL,,,,,,,,,,,,,,,,,,,,,,,,,,,
ELEC,Alhambra Nissan,726 E Main St,,Alhambra,CA,91801,,626-289-6161,E,,Public - Call ahead,Dealership business hours,,,,,,1,,,,,200-8,34.098325,-118.11915,2014-04-21,39869,2014-04-21 18:23:35 UTC,P,,,,,,,,J1772,US,,,,Public - Appeler à l'avance,,public,CALL,,,,,,,,,,,,,,,,,,,,,,,,,,,,,
ELEC,Antioch Nissan,1831 Auto Center Dr,,Antioch,CA,94509,,925-755-2600,E,,Public - Call ahead,Dealership business hours,,,,,,1,,,,,200-8,38.007497,-121.831648,2014-04-21,39870,2014-04-21 18:23:35 UTC,P,,,,,,,,J1772,US,,,,Public - Appeler à l'avance,,public,CALL,,,,,,,,,,,,,,,,,,,,,,,,,,,,,
ELEC,Nissan of Bakersfield,2800 Pacheco Rd,,Bakersfield,CA,93313,,661-835-8600,E,,Public - Call ahead,Dealership business hours,,,,,,1,1,,,,200-8,35.310768,-119.036466,2014-06-03,39871,2014-06-03 03:44:57 UTC,P,,,,,,,,CHADEMO J1772,US,,,,Public - Appeler à l'avance,,public,CALL,,,,,,,,,,,,,,,,,,,,,,,,,,,,,
ELEC,Buena Park Nissan,6501 Auto Center Dr,,Buena Park,CA,90621,,714-739-0800,E,,Public - Call ahead,Dealership business hours,,,,,,1,1,,,,200-8,33.8656318,-117.9950977,2014-06-03,39872,2014-06-03 03:44:36 UTC,P,,,,,,,,CHADEMO J1772,US,,,,Public - Appeler à l'avance,,public,CALL,,,,,,,,,,,,,,,,,,,,,,,,,,,,,
ELEC,Carson Nissan,1505 E 223rd St,,Carson,CA,90745,,310-221-5119,E,,Public - Call ahead,Dealership business hours,,,,,,1,1,,,,200-8,33.8249799,-118.245666,2014-06-03,39873,2014-06-03 03:44:37 UTC,P,,,,,,,,CHADEMO J1772,US,,,,Public - Appeler à l'avance,,public,CALL,,,,,,,,,,,,,,,,,,,,,,,,,,,,,
ELEC,Palm Springs Nissan,68177 Kyle Rd,,Cathedral City,CA,92234,,760-328-2828,E,,Public - Call ahead,Dealership business hours,,,,,,1,,,,,GPS,33.78414,-116.471,2014-04-21,39874,2014-04-21 18:23:35 UTC,P,,,,,,,,J1772,US,,,,Public - Appeler à l'avance,,public,CALL,,,,,,,,,,,,,,,,,,,,,,,,,,,,,
ELEC,Cerritos Nissan,18707 Studebaker Rd,,Cerritos,CA,90703,,562-402-2277,E,,Public - Call ahead,Dealership business hours,,,,,,1,,,,,200-8,33.861398,-118.100502,2014-06-03,39875,2014-06-03 03:44:38 UTC,P,,,,,,,,J1772,US,,,,Public - Appeler à l'avance,,public,CALL,,,,,,,,,,,,,,,,,,,,,,,,,,,,,
ELEC,Chico Nissan,575 Manzanita Ave,,Chico,CA,95926,,530-891-1777,E,,Public - Call ahead,Dealership business hours,,,,,,1,,,,,200-8,39.756748,-121.843727,2014-04-21,39876,2014-04-21 18:23:35 UTC,P,,,,,,,,J1772,US,,,,Public - Appeler à l'avance,,public,CALL,,,,,,,,,,,,,,,,,,,,,,,,,,,,,
ELEC,Puente Hills Nissan,17320 E Gale Ave,,City of Industry,CA,91748,,626-626-2600,E,,Public - Call ahead,Dealership business hours,,,,,,1,,,,,200-8,33.997526,-117.927915,2014-04-21,39877,2014-04-21 18:23:35 UTC,P,,,,,,,,J1772,US,,,,Public - Appeler à l'avance,,public,CALL,,,,,,,,,,,,,,,,,,,,,,,,,,,,,
ELEC,Nissan of Clovis,370 W Herndon Ave,,Clovis,CA,93612,,559-297-6919,E,,Public - Call ahead,Dealership business hours,,,,,,1,,,,,200-8,36.836849,-119.716831,2014-04-21,39878,2014-04-21 18:23:35 UTC,P,,,,,,,,J1772,US,,,,Public - Appeler à l'avance,,public,CALL,,,,,,,,,,,,,,,,,,,,,,,,,,,,,
ELEC,Serramonte Nissan,650 Serramonte Blvd,,Colma,CA,94014,,650-994-1661,E,,Public - Call ahead,Dealership business hours,,,,,,1,1,,,,200-8,37.675806,-122.461273,2014-04-21,39879,2014-04-21 18:23:35 UTC,P,,,,,,,,CHADEMO J1772,US,,,,Public - Appeler à l'avance,,public,CALL,,,,,,,,,,,,,,,,,,,,,,,,,,,,,
ELEC,Dirito Brothers Concord Nissan,1290 Concord Ave,,Concord,CA,94520,,925-676-4400,E,,Public - Call ahead,Dealership business hours,,,,,,1,1,,,,200-8,37.9798451,-122.0506061,2014-10-06,39880,2014-10-06 15:16:07 UTC,P,,,,,,,,CHADEMO J1772,US,,,,Public - Appeler à l'avance,,public,CALL,,,,,,,,,,,,,,,,,,,,,,,,,,,,,
ELEC,Corona Nissan,2575 Wardlow Rd,,Corona,CA,92882,,951-735-3360,E,,Public - Call ahead,Dealership business hours,,,,,,1,,,,,200-8,33.8831909,-117.615655,2014-04-21,39881,2014-04-21 18:23:36 UTC,P,,,,,,,,J1772,US,,,,Public - Appeler à l'avance,,public,CALL,,,,,,,,,,,,,,,,,,,,,,,,,,,,,
ELEC,Connell Nissan,2850 Harbor Blvd,,Costa Mesa,CA,92626,,714-444-4220,E,,Public - Call ahead,Dealership business hours,,,,,,1,1,,,,200-8,33.675336,-117.9186698,2014-04-21,39882,2014-04-21 18:23:36 UTC,P,,,,,,,,CHADEMO J1772,US,,,,Public - Appeler à l'avance,,public,CALL,,,,,,,,,,,,,,,,,,,,,,,,,,,,,
ELEC,Hanlees Nissan,5009 Chiles Rd,,Davis,CA,95618,,530-231-3000,E,,Public - Call ahead,Dealership business hours,,,,,,1,1,,,,200-8,38.5528966,-121.6924675,2014-06-03,39883,2014-06-03 03:44:44 UTC,P,,,,,,,,CHADEMO J1772,US,,,,Public - Appeler à l'avance,,public,CALL,,,,,,,,,,,,,,,,,,,,,,,,,,,,,
ELEC,Downey Nissan,7550 Firestone Blvd,,Downey,CA,90241,,562-334-1090,E,,Public - Call ahead,Dealership business hours,,,,,,1,,,,,200-8,33.946204,-118.145718,2014-04-21,39884,2014-04-21 18:23:36 UTC,P,,,,,,,,J1772,US,,,,Public - Appeler à l'avance,,public,CALL,,,,,,,,,,,,,,,,,,,,,,,,,,,,,
ELEC,Performance Nissan,1434 Buena Vista St,,Duarte,CA,91010,,626-305-3000,E,,Public - Call ahead,Dealership business hours,,,,,,1,,,,,200-8,34.1367157,-117.9775409,2014-04-21,39885,2014-04-21 18:23:36 UTC,P,,,,,,,,J1772,US,,,,Public - Appeler à l'avance,,public,CALL,,,,,,,,,,,,,,,,,,,,,,,,,,,,,
